Station Name,ZIP,Latitude,Longitude
LADWP - Truesdale Center,91352,34.24831915,-118.3879714
LADWP - West LA District Office,90024,34.052542,-118.448504
Los Angeles Convention Center,90015,34.040539,-118.271387
LADWP - John Ferraro Building,90012,34.059133,-118.248589
LADWP - Haynes Power Plant,90803,33.759802,-118.096665
State Capitol Parking Garage,95814,38.576769,-121.495022
LADWP - Harbor Generating Station,90744,33.770508,-118.265628
LADWP - Sylmar West,91342,34.30309,-118.480505
LADWP - EV Service Center,90012,34.066801,-118.227605
LADWP - Fairfax Center,90016,34.036777,-118.368841
California Air Resources Board,91731,34.06872,-118.064
LADWP - Palmetto Center,90013,34.039736,-118.236065
Scripps Green Hospital,92037,32.89947,-117.243
Galpin Motors,91343,34.221665,-118.468371
Galleria at Tyler,92503,33.909914,-117.459053
City of Pasadena - Holly Street Garage,91103,34.14762,-118.147111
City of Pasadena - De Lacey Garage,91105,34.145138,-118.152655
City of Pasadena - Schoolhouse Garage,91105,34.145119,-118.150133
Pasadena Hilton,91101,34.142973,-118.140553
Bristol Farms,91030,34.118433,-118.149597
Hyatt Regency Long Beach,90802,33.7637,-118.192
Los Angeles International Airport (LAX) - Lot 6,90045,33.94325,-118.403342
Northridge Fashion Center - Yard House,91324,34.241116,-118.556708
Ontario Airport Hotel and Conference Center,91764,34.07122,-117.575
Courtyard Marriott - Oxnard Ventura,93030,34.228315,-119.170865
Hilton - Palm Springs,92262,33.824004,-116.543589
East Bay Mini,94588,37.700187,-121.876172
Inland Empire Foods,92509,34.0189,-117.38
Sacramento International Airport - Daily A Lot,95837,38.69005,-121.58889
City of Santa Monica - Airport,90405,34.017081,-118.44704
City of Santa Monica - Pier,90405,34.010021,-118.49583
Westfield Fashion Square,91423,34.156839,-118.434454
Universal City Hilton,91608,34.138717,-118.35904
Van Nuys Amtrak/Metrolink Station,91405,34.21108,-118.448704
Office Max - Home Depot,90241,33.94756,-118.153806
Hyatt at Fisherman's Wharf,94133,37.80619,-122.4152
Arden Fair Mall,95815,38.599693,-121.427045
Japan Center Garage,94115,37.784912,-122.430237
Palace Hotel,94105,37.78881,-122.401
Mark Hopkins InterContinental Hotel,94108,37.791791,-122.411265
Hotel Sofitel,90048,34.076264,-118.377527
Music Center Parking - Level 2,90012,34.057657,-118.24789
Balboa Golf Course,91436,34.169242,-118.497212
California State University - Northridge,91330,34.248959,-118.523887
California State University - Northridge,91330,34.241687,-118.528543
California State University - Northridge,91330,34.236853,-118.532588
Northridge Metrolink Station,91324,34.229277,-118.544827
Los Angeles Harbor Department Headquarters,90731,33.740758,-118.28192
Sylmar Metrolink Station,91342,34.2924134,-118.4497914
Getty Center,90049,34.077588,-118.474585
Los Angeles County - Arboretum,91007,34.145528,-118.050548
City of Glendora - City Hall,91741,34.13556,-117.864
DoubleTree Hotel - Los Angeles - Westside,90230,33.9826,-118.3966
Helms Bakery Building,90034,34.029971,-118.385231
Westfield MainPlace Mall,92705,33.777054,-117.870566
California State University - Channel Islands,93012,34.16657602,-119.0458547
Brea Downtown Parking,92821,33.919899,-117.898618
Home Depot,91320,34.192178,-118.934793
Lake Casitas Municipal Water District - Recreational Area,93022,34.418322,-119.3368
San Dimas Park & Ride,91773,34.105275,-117.809208
City of Pasadena - El Molino Lot,91101,34.147709,-118.136621
Ventura County Government Center,93009,34.267352,-119.2124
Ventura County Air Pollution Control District,93003,34.268756,-119.2154
Pacific View Mall,93003,34.268,-119.2492
LADWP - Scattergood Generating Facility,90293,33.917593,-118.425334
Los Angeles Department of Public Works - Baldwin Park Construction Permit Office,91706,34.089085,-117.95463
Los Angeles Department of Public Works - Hollydale Construction Permit Office,90242,33.92364288,-118.1678308
Los Angeles Department of Public Works - Imperial Maintenance Yard,90280,33.930663,-118.175758
University of California - Davis Extension - Lot 80,95616,38.539336,-121.732405
San Luis Obispo County Air Pollution Control District,93401,35.25939,-120.64492
Soquel & Front Garage,95061,36.973393,-122.024849
LADWP - Wilmington District Yard,90744,33.773005,-118.265821
Fair Oaks - Orangevale - Community Library,95628,38.66292,-121.2634
Sutter Galleria Mall - University of California - Davis Extension,95816,38.57277,-121.467902
North Highlands Library,95843,38.7042,-121.365
Gateway Oaks Metro Center,95833,38.615468,-121.517263
University of California - Davis - Medical Center,95817,38.552483,-121.4487
City of Sacramento - Belle Cooledge Library,95822,38.524403,-121.5112
Mosquito Road Park and Ride,95667,38.73323,-120.78962
City of Vacaville - Cultural Center,95687,38.356027,-121.9628
Stars Recreation Center,95688,38.36557,-121.967
City of Vacaville - Regional Transport Center,95688,38.35172,-121.987
Office of Housing & Redevelopment,95688,38.356907,-122.001886
KUIC Radio - Parking Lot,95688,38.355867,-121.9862
City of Vacaville - City Hall,95688,38.351758,-121.994475
Citrus Heights City Hall,95621,38.682605,-121.297614
Pitt School Plaza,95620,38.457369,-121.842567
El Dorado County Government Center,95667,38.72799,-120.828
El Dorado Transit Park & Ride,95762,38.6476,-121.067
Elk Grove Kia,95758,38.40553,-121.391
CVS Pharmacy,95746,38.74453,-121.17
Carmichael Library,95608,38.618066,-121.334337
Burlington International Airport,5403,44.469281,-73.154972
Rio Vista City Hall,94571,38.15485,-121.69
Fairfield City Hall,94533,38.25281,-122.044229
Solano Community College,94534,38.23723,-122.123
Vallejo Ferry Terminal,94590,38.105062,-122.265895
Los Angeles International Airport (LAX) - Lot 1,90045,33.944761,-118.399767
City of Vacaville - Police Headquarters,95688,38.35109,-121.993654
Southern California Edison - Sacramento Office,95831,38.578568,-121.491058
Burlington International Airport,5403,44.469281,-73.154972
LADWP - Boylston,90026,34.059047,-118.256812
LADWP - Central District,90015,34.033898,-118.256673
LADWP - Lincoln Heights District,90031,34.081998,-118.21713
LADWP - Receiving Station C,90744,33.799476,-118.257977
LADWP - Valley Center Admin Lot,91405,34.208708,-118.444358
LADWP - Valley Generating Station,91352,34.241928,-118.390147
City of Lacey - City Hall Parking,98503,47.044011,-122.822404
Oregon Museum of Science and Industry (OMSI) - South Parking Lot,97214,45.508396,-122.664667
City of Ukiah - Public Parking Lot,95482,39.15,-123.2091
Nut Tree Village,95688,38.368755,-121.961192
Placer County Community Development Resource Center,95603,38.9412492,-121.1054805
4th and G Plaza Public Parking Garage,95616,38.54643,-121.7388
Davis Amtrak Station,95616,38.5443,-121.738
University of California - Davis - Quad Parking Structure,95616,38.544538,-121.749713
University Covenant Church,95618,38.55755,-121.6947
Wildhorse Golf Club,95618,38.569412,-121.721373
Lakewood Center Mall,90712,33.84788,-118.13889
Golden Gate Ferry Terminal,94939,37.94495,-122.5096
Oakland International Airport - Daily Lot,94621,37.7136,-122.2087
Seattle-Tacoma International Airport - General Parking,98188,47.443377,-122.296229
City of Champaign - Hill Street Parking Deck,61820,40.119161,-88.244185
Discovery Center of Idaho,83702,43.608009,-116.197968
Travis Park United Methodist Church,78205,29.427254,-98.490136
City of Keizer - City Hall,97303,44.99574,-123.019758
Nike - LA Garage,97006,45.508795,-122.8249
Fairfield Transportation Center,94533,38.2482,-122.0678
San Francisco City Hall,94102,37.77913,-122.418
METRO NASHVILLE FULTON GARAGE 1,37210,36.153492,-86.76732
LINCOLN CITY TAFT DUAL 1,97367,44.928439,-124.015824
New York Institute of Technology - Old Westbury Solar Carport Station,11568,40.814019,-73.608978
OUC RELIABLE 01,32801,28.535975,-81.379663
PUBLIC STATIONS WILLY ST E,53703,43.083979,-89.363091
Haggen Food & Pharmacy,98502,47.035421,-122.938962
LBCC  LBCC DUAL 2,97321,44.586123,-123.115389
Oregon Electric Group,97214,45.510465,-122.663354
Home Depot,93405,35.249929,-120.689683
San Luis Obispo Promenade - Bed Bath & Beyond,93401,35.25982,-120.676
New York State Energy Research Development Authority - Headquarters,12203,42.702424,-73.857693
Saratoga Technology & Energy Park,12020,42.969823,-73.773021
Central Hudson Gas & Electric,12601,41.688323,-73.93433
Avista Corp,99252,47.673347,-117.388933
Steam Plant Grill,99201,47.654998,-117.425025
Kum & Go #4110,50317,41.615759,-93.57875
Kum & Go #570,50131,41.682385,-93.698315
Kwik Trip #465,55433,45.138245,-93.274379
City of Little Rock,72201,34.74555969,-92.28119659
TUCSON RENTAL OFF NETWORK 1,85748,32.236156,-110.781792
Whole Foods Market,6820,41.072919,-73.476189
ARUNDEL MILLS  ELEMENT HOTELS,21076,39.155907,-76.717216
Element Hotels - Ewing,8628,40.286518,-74.807516
Lane Community College,97405,44.009797,-123.033213
BROOKFIELD PROP 300 CLAY STAT1,77002,29.756604,-95.372854
Hudson Valley Community College - TEC-SMART Building,12020,42.97167,-73.774182
Goleta Mechanics Bank,93117,34.44198,-119.829553
INTERPARK ADAMS WABASH 2,60603,41.879444,-87.626366
INTERPARK WILLIS TOWER 1,60606,41.879081,-87.634561
INTERPARK WASH FRANK NEW,60606,41.883404,-87.635081
INTERPARK LAKE & WELLS 2,60606,41.885223,-87.633751
INTERPARK 50 EAST OHIO 2,60611,41.892757,-87.626038
City of Spartanburg - Municipal Parking Garage,29306,34.950136,-81.93279
City of Spartanburg - Municipal Parking Garage,29306,34.951926,-81.931714
City of Union Town Hall,29379,34.715982,-81.624616
Whole Foods Market,6824,41.157925,-73.240315
Propark America - Omni Hotel Chapel Square Garage,6510,41.305794,-72.927405
City of New Haven - Air Rights Garage,6511,41.305265,-72.934141
City of New Haven - Temple Street Garage,6510,41.304245,-72.928369
Propark - Water Street Garage,6320,41.355486,-72.093784
Town of Westport - Westport Metro North,6880,41.119291,-73.369266
Park 'N Fly - Bradley International Airport,6078,41.951328,-72.663078
OLD TOWN DECK  GROUND LEVEL,49684,44.760253,-85.62237
GATEWAYKENOSHA  HORIZON MAINLOT,53144,42.592469,-87.915847
PUBLIC STATIONS GREENWAY STAT,53562,43.091229,-89.52884
Spinx #149,29206,34.042116,-80.939041
Baker Electric Building,44103,41.503373,-81.639054
McDonald's,25703,38.417603,-82.456866
OUC OC BARNETT 1,32808,28.560572,-81.441748
OUC OC MARKS ST 01,32803,28.556879,-81.377632
OUC OUC OCCC 03,32819,28.429015,-81.458938
OUC OC W LIBRARY 01,32811,28.528024,-81.44774
OUC OC MED EXAM 01,32806,28.512494,-81.351919
INTERPARK SOUTH LOOP 1,60604,41.877419,-87.630013
French Gerleman,63146,38.694036,-90.4218
HILLSBORO OR MAIN ST 1,97123,45.522609,-122.988535
HILLSBORO OR EV-8,97123,45.520533,-122.978089
BELLEVUE BELLEVUE CH 1,98004,47.614744,-122.193162
Oregon Museum of Science and Industry (OMSI) - North Parking Lot,97214,45.509326,-122.666392
Liberty Park,84119,40.74686,-111.876
Salt Lake City Main Library,84111,40.759561,-111.883924
The Evergreen State College,98505,47.071917,-122.976675
The Hartford Financial Services Group - Lot 4,6105,41.770428,-72.687141
The Hartford Financial Services Group,6095,41.879631,-72.729919
JCCC MTC,66210,38.92591,-94.72819
SCHOOLCRAFT EDU LIBRARY 02,48152,42.419224,-83.431343
Courtyard Marriott - Hadley Amherst,1035,42.36262,-72.5395
City of Delray Beach - Banker's Row Parking Lot,33444,26.465314,-80.07219
KING COUNTY DOT ISSAQUAH P&R 2,98027,47.545324,-122.0195
King County - King County Van Distribution Center,98052,47.675897,-122.091237
Eversource,6106,41.765253,-72.671569
SEAPORT GARAGE EAST GARAGE2 P1,2210,42.349249,-71.041557
City of Columbia - Cannon Garage,29201,34.00741493,-81.0348006
City of Columbia - Washington Street Garage,29201,34.003323,-81.035693
City of Columbia - Arsenal Hill Garage,29201,34.008409,-81.041802
City of Columbia - Lincoln Street Garage,29201,34.002255,-81.040219
Greenville Zoo,29601,34.84709,-82.387269
City of Greenville - Poinsett Garage,29601,34.849724,-82.400667
City of Greenville - Spring Street Garage,29601,34.849889,-82.397797
City of Greenville - Church Street Garage,29601,34.852754,-82.393113
City of Columbia - Park Street Garage,29201,33.997786,-81.036161
City of Greenville - Commons Garage,29601,34.852789,-82.396195
City of Greenville - Liberty Square Garage,29601,34.85335,-82.394826
City of Greenville - Richardson Garage,29601,34.852437,-82.399901
City of Rock Hill - Municipal Garage,29730,34.925782,-81.028444
Timken Sports Complex,29379,34.716556,-81.648482
Lockhart Power,29364,34.77993955,-81.45735907
Toyota of Santa Monica,90401,34.019875,-118.49151
Parc 55 Hotel,94102,37.784871,-122.408991
Beach & Hyde Garage,94109,37.806798,-122.419488
City of Santa Monica - Civic Parking Garage,90401,34.010528,-118.4898
Denver International Airport - Canopy Airport Parking,80022,39.843886,-104.771138
Town of Superior - Town Hall,80027,39.953798,-105.166116
Charles Hotel - Harvard Square,2138,42.372442,-71.122882
Town of Dyer - Town Hall,46311,41.492057,-87.522819
Peaches Bed & Breakfast,49503,42.962078,-85.659019
GREEN MANGO GREEN MANGO 1,32218,30.485141,-81.662098
ComEd,60618,41.94629288,-87.69982
ComEd,60652,41.75497055,-87.71321
City Hall Annex - Town of Normal,61761,40.507796,-88.982897
College Avenue Parking Deck,61761,40.511172,-88.984985
State of Illinois - Governor's Mansion,62703,39.79628,-89.6504
Duke Energy,46168,39.70909,-86.3894
MCDONALD SWLA CHARGE AT MCD 1,70601,30.198704,-93.212318
ECM WEBER ELEC 1ST NATIONAL #1,55101,44.946632,-93.091461
3M,55117,44.95121,-92.9952
UWB CASCADIA CC NORTH DUAL 1,98011,47.761878,-122.191915
CITY OF REDMOND CITY HALL DUAL,98052,47.679224,-122.12995
CITY OF REDMOND MOC #1 PUBLIC,98052,47.672359,-122.099034
WILLOWS LODGE WILLOWS #2,98072,47.734211,-122.147041
PUBLIC STATIONS PINNACLE HEALTH,53719,43.011411,-89.459112
PUBLIC STATIONS WILLY ST W,53562,43.096636,-89.500008
City of Raleigh - Municipal Building,27601,35.778416,-78.64347
City of Raleigh - Downtown,27601,35.77435,-78.642287
Missouri University of Science and Technology - E3 Commons,65401,37.958953,-91.779289
Clay Cooley Nissan,78745,30.206145,-97.759109
Eversource Energy Park,3101,42.999265,-71.467911
Super 8 - Ukiah,95482,39.1458,-123.198497
KEMET Corp,29681,34.749177,-82.279741
Hotel Floyd,24091,36.910575,-80.31736
Virginia Commonwealth University (VCU) - West Broad Street Parking Deck,23284,37.551409,-77.45233
Virginia Commonwealth University (VCU) - N-Deck Parking Deck,23298,37.543387,-77.42953
Kwik Trip #330,56011,44.62302,-93.756478
Kwik Trip #481,55066,44.567726,-92.624863
Kwik Trip #492,55317,44.842694,-93.53986
Kwik Trip #615,56003,44.17948,-94.036719
Kwik Trip #466,56082,44.314819,-93.963999
Kwik Trip #812,55304,45.218899,-93.310669
Oak Ridge Nissan,37830,36.010279,-84.268049
Newton Nissan South,37160,35.558371,-86.448276
McGavock Nissan - Abilene,79606,32.408909,-99.771463
McGavock Nissan - Amarillo,79119,35.159354,-101.938937
Don Davis Nissan,76018,32.676458,-97.087169
Town North Nissan,78758,30.374542,-97.731445
Baytown Nissan,77521,29.807253,-94.97383365
Mike Smith Nissan,77701,30.062535,-94.133511
Grubbs Nissan,76022,32.839339,-97.160994
Douglass Nissan,77845,30.639201,-96.30671
Ed Hicks Nissan,78415,27.73082,-97.416019
Clay Cooley Nissan,75237,32.646784,-96.863492
Classic Nissan,75020,33.775328,-96.58308
Casa Nissan,79925,31.783928,-106.417267
Viva Nissan,79936,31.724024,-106.302211
Nissan of Fort Worth,76116,32.721585,-97.478539
Texas Nissan of Grapevine,76051,32.928183,-97.09448
Charlie Clark Nissan,78552,26.186259,-97.734663
Baker Nissan North,77065,29.913418,-95.611942
Central Houston Nissan,77054,29.676558,-95.422537
McDavid Nissan,77034,29.625565,-95.22531
Mossy Nissan,77079,29.785494,-95.60022
Tom Peacock Nissan,77090,29.990205,-95.423096
Robbins Nissan,77338,29.990275,-95.275606
Clay Cooley Nissan,75062,32.849437,-96.914294
Katy Nissan,77494,29.775354,-95.817237
Bates Nissan,76543,31.078549,-97.692745
Sames Kingsville Nissan,78363,27.492086,-97.84753
Family Nissan of Laredo,78041,27.528418,-99.458211
Clear Lake Nissan,77573,29.484543,-95.10255
AutoNation Nissan - Lewisville,75067,33.022937,-96.988337
Patterson Nissan - Longview,75605,32.553772,-94.727241
McGavock Nissan,79424,33.535048,-101.958266
Nissan of McKinney,75069,33.161606,-96.644662
Trophy Nissan,75150,32.829838,-96.629967
Nissan of Midland,79707,32.024113,-102.151567
Twin City Nissan,77640,29.953433,-94.0071
Courtesy Nissan,75080,32.97135,-96.719803
Gillman Nissan,77471,29.534537,-95.772812
Round Rock Nissan,78681,30.54205,-97.69265
Jim Bass Nissan,76901,31.44646,-100.496244
Ancira Nissan,78230,29.543147,-98.57544
Gunn Nissan,78209,29.517253,-98.467365
Ingram Park Nissan,78238,29.457047,-98.625324
World Car Nissan,78233,29.556508,-98.34469
Nissan of San Marcos,78666,30.4963137,-97.6809454
Nissan of Silsbee,77656,30.314894,-94.18396
Sterling McCall Nissan,77477,29.645808,-95.57612
Garlyn Shelton Nissan,76502,31.079653,-97.410328
Peltier Nissan,75701,32.31165413,-95.34249986
Victory Nissan,77904,28.851423,-96.997881
Douglas Nissan,76712,31.495348,-97.160226
Southwest Nissan,76087,32.7561,-97.705239
Nissan of Wichita Falls,76309,33.88049,-98.545953
Passport Nissan - Alexandria,22304,38.809675,-77.122192
Priority Nissan - Chantilly,20151,38.899751,-77.460168
Colonial Nissan,22901,38.086121,-78.474663
Brown's Fairfax Nissan,22030,38.85358,-77.324803
Pomoco Nissan - Hampton,23666,37.042363,-76.388316
Sheehy Nissan - Manassas,20110,38.760854,-77.459274
Shell - YESS! Convenience 4U,23805,37.175139,-77.352948
SCIENCE MUSEUM SCIENCE MUSEUM1,23220,37.561646,-77.465974
First Team Nissan,24019,37.345779,-79.962578
Brown's Dulles Nissan,20166,39.010459,-77.438399
Priority Nissan,22182,38.927033,-77.240836
Tri-State Nissan,22602,39.156514,-78.147297
Rairdon's Nissan - Auburn,98002,47.338754,-122.221114
Bellingham Nissan,98229,48.755607,-122.454132
Advantage Nissan,98312,47.562162,-122.684286
Burien Nissan,98148,47.458466,-122.333257
Campbell-Nelson Nissan,98026,47.778229,-122.344838
Campbell Nissan - Everett,98204,47.90272982,-122.2469884
Olympia Nissan,98502,47.031067,-122.930247
Bill Robertson Nissan,99301,46.236607,-119.128998
Dan Wilder Nissan,98362,48.102863,-123.342273
Puyallup Nissan,98371,47.207367,-122.294997
Younker Nissan,98058,47.448354,-122.2188
Wendle Nissan,99218,47.739021,-117.409937
Dave Smith Nissan - Spokane,99212,47.657264,-117.312518
Tacoma Nissan,98409,47.21978,-122.48576
Alan Webb Nissan,98662,45.648094,-122.597954
O'Brien Nissan,99362,46.047464,-118.353406
Mountain View Nissan,37408,35.030251,-85.308376
Harold Mathews Nissan,37043,36.513006,-87.268667
Cookeville Nissan,38501,36.137109,-85.496453
Victory Nissan West,37055,36.023934,-87.340223
Rick Hill Nissan,38024,36.063277,-89.379485
Nissan of Cool Springs,37067,35.957857,-86.80853
Newton Nissan of Gallatin,37066,36.361376,-86.494932
Tri-Cities Nissan,37601,36.374198,-82.372119
Wallace Nissan Oldsmobile,37660,36.551978,-82.487762
Ted Russell Nissan,37919,35.920587,-84.067881
Rusty Wallace Nissan,37912,35.999617,-83.969451
Nissan of Rivergate,37115,36.29062,-86.7051
Roberts Nissan,37355,35.454702,-86.041805
Weakley County Motors,38237,36.369277,-88.849653
AutoNation Nissan - Memphis,38125,35.0353,-89.795859
Jim Keras Nissan,38128,35.181031,-89.895533
East Tennessee Nissan,37814,36.18226,-83.382387
Nissan of Murfreesboro,37129,35.854156,-86.394979
Action Nissan,37211,36.110606,-86.743585
Downtown Nashville Nissan,37228,36.191053,-86.793132
Carr Nissan,97005,45.491783,-122.81107
Lithia Nissan of Bend,97701,44.055213,-121.277279
Kiefer Nissan,97330,44.572608,-123.258425
Lithia Nissan of Eugene,97401,44.05902085,-123.0813975
Dick Hannah Nissan,97027,45.378967,-122.603899
Chuck Colvin Nissan,97128,45.227394,-123.180863
Lithia Nissan,97504,42.379969,-122.858192
Rustom Nissan - Portland,97230,45.531759,-122.537403
Power Nissan - Salem,97302,44.921582,-123.006236
Ray Schultens Nissan,97058,45.613979,-121.20996
Tonkin Nissan,97070,45.326814,-122.770853
Dick Smith Nissan,29210,34.055164,-81.128164
Dick Smith Nissan,29072,33.997902,-81.222504
Twin City Nissan,37701,35.830725,-83.974822
Wolfchase Nissan,38133,35.205818,-89.791337
Bill Gatton Nissan,37620,36.54282,-82.2354
Nissan of Chattanooga East,37421,35.056433,-85.190515
Benton Nissan - Hoover,35216,33.394903,-86.807186
Matt Bowers Nissan Eastern Shore,36526,30.660697,-87.858464
Lynn Layton Cad-Nissan,35601,34.563857,-86.972193
Jack Ingram Motors,36117,32.376832,-86.208559
Avondale Nissan,85323,33.459826,-112.284168
AutoNation Nissan - Chandler,85286,33.286316,-111.791107
Anderson Nissan,86404,34.54217,-114.35287
East Valley Nissan,85206,33.385361,-111.695062
Larry H Miller Nissan - Mesa,85201,33.434313,-111.872266
Peoria Nissan,85382,33.636921,-112.253682
ABC Nissan,85014,33.509862,-112.054162
Coulter Nissan,85388,33.605183,-112.420442
Midway Nissan,85023,33.639038,-112.108088
Pinnacle Nissan,85260,33.635224,-111.915739
AutoNation Nissan - Tempe,85284,33.346812,-111.967793
Jim Click Nissan,85705,32.289823,-110.985646
Thoroughbred Nissan,85711,32.207374,-110.881798
Antioch Nissan,94509,38.007799,-121.832042
Nissan of Bakersfield,93313,35.310723,-119.035324
Buena Park Nissan,90621,33.865497,-117.995215
Carson Nissan,90745,33.824968,-118.245675
Palm Springs Nissan,92234,33.78414,-116.471
Cerritos Nissan,90703,33.861544,-118.100471
Chico Nissan,95926,39.756332,-121.843715
Puente Hills Nissan,91748,33.997621,-117.928216
Lithia Nissan - Clovis,93612,36.836818,-119.717629
Nissan of Serramonte,94014,37.671267,-122.463541
Autocom Nissan - Concord,94520,37.980192,-122.050128
Larry H Miller Nissan,92882,33.88309,-117.615292
Orange Coast Nissan,92626,33.675397,-117.918684
Hanlees Nissan,95618,38.55252,-121.691555
Downey Nissan,90241,33.9473,-118.151166
Nissan of Duarte,91010,34.136553,-117.975944
Mossy Nissan - El Cajon,92020,32.795896,-116.976156
Ross Nissan of El Monte,91731,34.069536,-118.026911
Nissan of Elk Grove,95757,38.402217,-121.385527
Mossy Nissan - Escondido,92029,33.116492,-117.106837
McCrea Nissan,95501,40.800562,-124.164405
Future Nissan of Folsom,95630,38.634132,-121.204871
Fontana Nissan,92336,34.135345,-117.445732
Premier Nissan of Fremont,94538,37.489389,-121.9576
Lithia Nissan - Fresno,93710,36.818622,-119.789796
Imperio Nissan of Garden Grove,92844,33.766376,-117.968337
Gardena Nissan,90247,33.889201,-118.307028
South County Nissan,95020,36.996869,-121.558573
Glendale Nissan,91204,34.137054,-118.25536
Santa Barbara Nissan,93117,34.43427,-119.820934
Hayward Nissan,94544,37.662305,-122.075178
Pedder Nissan,92545,33.741163,-117.031718
Surf City Nissan,92647,33.71069,-117.989861
Nissan of Irvine,92618,33.632505,-117.723298
Torre Nissan,92253,33.70711,-116.283712
Nissan of Downtown Los Angeles,90015,34.035168,-118.273229
Universal City Nissan,90068,34.133446,-118.356601
Razzari Nissan,95340,37.305891,-120.502428
Nissan of Mission Hills,91345,34.269809,-118.466606
Central Valley Nissan,95356,37.705119,-120.99471
Metro Nissan of Montclair,91763,34.082404,-117.694876
Metro Nissan of Redlands,92374,34.065387,-117.212007
Napa Nissan,94559,38.292706,-122.277767
Mossy Nissan,91950,32.659001,-117.100836
Mossy Nissan - Oceanside,92056,33.181953,-117.298334
Stadium Nissan,92867,33.80857,-117.864434
Team Nissan,93036,34.22771,-119.150217
Antelope Valley Nissan,93551,34.591173,-118.138184
North Bay Nissan,94952,38.267202,-122.665068
Mossy Nissan - Poway,92064,32.956772,-117.025943
Crown Nissan,96002,40.571632,-122.36654
Boardwalk Nissan,94063,37.495963,-122.227322
Hanlees Hilltop Nissan,94806,37.985253,-122.32124
Raceway Nissan,92507,33.941878,-117.297603
Riverside Nissan,92504,33.925469,-117.419673
Future Nissan,95661,38.752198,-121.256452
Nissan of Sacramento,95821,38.631393,-121.396604
My Nissan,93907,36.720023,-121.662519
Larry H Miller Nissan - San Bernardino,92408,34.074378,-117.298
Mossy Nissan - Kearny Mesa,92111,32.833179,-117.147384
Pacific Nissan,92109,32.802475,-117.215269
Nissan Sunnyvale,94087,37.359362,-122.022783
Premier Nissan,95136,37.275144,-121.877656
Nissan - San Juan Capistrano,92675,33.47443,-117.676142
San Leandro Nissan,94577,37.712609,-122.162746
Coast Nissan,93405,35.25062,-120.68455
Stevens Creek Nissan,95051,37.323569,-121.988027
Jim Bone Nissan,95404,38.425537,-122.714089
Cardinale Nissan,93955,36.611189,-121.849899
Nissan of Van Nuys,91401,34.168824,-118.449059
First Nissan,93065,34.277324,-118.778957
Nissan of Stockton,95212,38.022022,-121.275339
Quality Nissan - Temecula,92591,33.516768,-117.155039
Tracy Nissan,95304,37.75990555,-121.4632052
Nissan of Tustin,92782,33.72484,-117.799302
Nissan of Vacaville,95687,38.381441,-121.941218
Champion Nissan,91355,34.420546,-118.557774
Vallejo Nissan,94590,38.118088,-122.255493
Valley Hi Nissan,92394,34.517883,-117.3219
Nissan of Visalia,93292,36.32327,-119.27569
West Covina Nissan,91791,34.074227,-117.890899
Firkins Nissan,34207,27.462023,-82.578036
Maus Nissan,34448,28.848733,-82.57947
Deland Nissan,32720,28.983689,-81.300079
Delray Nissan,33483,26.435016,-80.072333
Fort Lauderdale Nissan,33316,26.109825,-80.137099
Westside Nissan,32210,30.288306,-81.730832
Fuccillo Nissan,32244,30.212415,-81.736209
Rountree-Moore Nissan,32055,30.18082,-82.702224
Bill Seidle's Nissan,33172,25.783121,-80.366772
Palmetto 57 Nissan,33055,25.9262,-80.292105
AutoNation Nissan - Miami,33135,25.76506,-80.250516
AutoNation Nissan - Kendall,33157,25.609391,-80.348241
AutoNation Nissan - Pembroke Pines,33024,26.007358,-80.263072
Alan Jay Nissan,33870,27.485756,-81.481603
Wallace Nissan,34997,27.152729,-80.217708
Courtesy Nissan - Tampa,33614,27.995139,-82.506186
Ferman Nissan - North Tampa,33612,28.049764,-82.458596
Sutherlin Nissan,32962,27.585356,-80.376442
City of West Palm Beach - City Center Garage,33401,26.713894,-80.05421
Hill Nissan,33884,27.982961,-81.676059
Sutherlin Nissan - Mall of Georgia,30519,34.075281,-83.98366
Nalley Nissan of Atlanta,30360,33.907866,-84.283186
Gwinnett Place Nissan,30096,33.967935,-84.146036
Stone Mountain Nissan,30047,33.841932,-83.905677
AutoNation Nissan - Thornton Road,30122,33.784015,-84.612737
AutoNation Nissan - Marietta,30060,33.92909,-84.50889
Nissan South,30260,33.566938,-84.344405
Regal Nissan,30076,34.022437,-84.327529
Nissan South Union City,30291,33.565412,-84.521117
Five Star Nissan,31088,32.555572,-83.66552
New City Nissan,96819,21.335175,-157.88225
Jim Falk Motors - Maui,96732,20.8891,-156.458605
King Windward Nissan,96744,21.399116,-157.799326
Tony Nissan,96797,21.42849,-157.998343
Municipal Garage,21202,39.291785,-76.610539
Bel Air Nissan,21014,39.505659,-76.382317
Community College of Baltimore County (CCBC),21228,39.256947,-76.730918
Younger Nissan,21704,39.391175,-77.407835
Criswell Nissan,20874,39.177414,-77.249773
Passport Nissan - Marlow Heights,20746,38.82681,-76.923233
Darcars Nissan,20855,39.113757,-77.161016
Herb Gordon Nissan,20904,39.077447,-76.947933
Lawson Parking Ramp,55102,44.946327,-93.095535
Lower Town Parking Ramp,55101,44.947042,-93.088226
Currie Maintenance Facility,55415,44.977961,-93.282508
St. Paul Natural Resources Department,55108,44.973838,-93.156808
St. Paul Public Works Maintenance Garage,55103,44.967593,-93.127742
World Trade Center Parking Ramp,55101,44.948972,-93.0962
Modern Nissan - Concord,28027,35.392063,-80.622777
Fred Anderson Nissan,28304,35.042419,-78.956747
Vann Yorks High Point Nissan,27260,35.937981,-79.996012
Nissan of Lumberton,28358,34.634487,-78.997134
International Brotherhood of Electrical Workers 569 - NECA Electrical Training Center,92123,32.823912,-117.12114
Clemson Area Transit,29631,34.702398,-82.801828
James River Air Conditioning,23230,37.578536,-77.48754
NV ENERGY 6100 NEIL RD 4,89511,39.467032,-119.779038
PIE AE OTC 3FL PKGSTA3,78704,30.256917,-97.749169
AT&T,75201,32.779791,-96.7990454
New River Nissan,24073,37.1581,-80.4203
Hyman Brothers Nissan,23113,37.50418,-77.61949
KEY CENTER KEY CENTER 6,98004,47.616104,-122.19696
KRC SKYLINE SKYLINE #1,98004,47.61434,-122.194037
PUBLIC STATIONS PRINCE CLUB E,53704,43.121878,-89.309902
PUBLIC STATIONS MID LIB GP,53562,43.094649,-89.50964
Smart Center San Diego,92111,32.82408524,-117.1471252
LEESBURG FL LIBRARY 01,34748,28.811736,-81.875204
CITY OF HOLLAND 127 E 8TH,49423,42.790376,-86.101511
3M Customer Innovation Center,55119,44.96232,-93.0005
Harper Corp,29601,34.848783,-82.401211
South Carolina Technology and Aviation Center,29605,34.756982,-82.383799
Stone's Cove Kitbar,20171,38.951695,-77.409238
County of Greenville - County Square,29601,34.840912,-82.400037
Furman University - Admissions Building,29613,34.926241,-82.433164
Figaro Restaurant,6082,41.997588,-72.583384
Victor Building Parking Garage,20001,38.899392,-77.024385
Jupiter Town Hall Complex,33458,26.9322,-80.1027
City of Auburn Hills - Log Cabin Streetside Parking,48326,42.6336,-83.220931
DTE Energy - Caniff Service Center,48211,42.395383,-83.074263
DTE Energy Headquarters - Executive Garage,48226,42.334321,-83.056903
DTE Energy - Headquarters Visitor Lot,48226,42.33375168,-83.05662
DTE Energy - Warren Service Center,48204,42.344978,-83.128128
MGM Casino - Public Parking Structure,48226,42.33476,-83.0608
City of Rochester - City Hall & Municipal Park,48307,42.683212,-83.1366
City of Rochester - Huntington Bank,48307,42.678841,-83.132684
Village of Rochester Hills,48309,42.682914,-83.193236
City of Saline - City Parking Lot #2,48176,42.166498,-83.780162
Cuyahoga Community College - Advanced Automotive Technology Center,44130,41.36684,-81.7638
Crystal Mountain Resort & Spa,49683,44.520371,-85.991356
Annapolis Friends Meeting,21401,39.001676,-76.525253
Quigley Chevrolet,19503,40.397876,-75.588988
Richmond Ford Lincoln,23230,37.578775,-77.489409
Emagine Entertainment,48067,42.455,-83.131111
Marriott Hotel - Underground Deck,27601,35.772881,-78.638502
City of Raleigh - Performing Arts Center Deck,27601,35.772619,-78.641492
City of Raleigh - Wilmington Station Deck,27601,35.77937,-78.638203
Southern Oregon University - Lot 8,97520,42.187149,-122.689496
Mentor Graphics,97070,45.317487,-122.759692
Atmosera,97005,45.475743,-122.776517
Clackamas County Sheriff's Office - Brooks Building,97015,45.43039547,-122.5722027
Jim Ellis Chevrolet,30341,33.90999,-84.2914
O'Hare Airport - Short Term Parking,60666,41.97850582,-87.90328
Rivers Casino,60018,41.99774,-87.864217
EBSCO,1938,42.677227,-70.839264
WATERFORD GROUP COURTYARD 2,3301,43.21772,-71.536324
Neal's Garage,27705,36.009999,-78.921405
SHERWOOD CANNERY #1,97140,45.355354,-122.840126
SHERWOOD CANNERY #2,97140,45.356319,-122.838837
SHEALY-COLUMBIA COUNTER SALES,29172,33.931732,-81.059303
Kum & Go #408,72712,36.379802,-94.177871
OUC CAY COMMONS 01,32819,28.424816,-81.445089
OUC DOMINOS UNIT 01,32809,28.470548,-81.396861
OUC VISTA CAY 01,32819,28.429047,-81.44937
OUC WINGATE 1,32819,28.485994,-81.457176
Kum & Go #206,50325,41.607327,-93.735902
Kum & Go #134,52556,41.00709,-91.981752
Kum & Go #572,50322,41.645933,-93.769432
CHARLES COUNTY INDIAN HEAD1,20640,38.623533,-77.086898
CHARLES COUNTY CRAIN CENTER1,20664,38.369101,-76.960389
Haworth Inn & Conference Center,49423,42.78875732,-86.10360718
DTE Energy - Allen Road Center,48122,42.292146,-83.178699
Novus - Employee Parking,63304,38.709309,-90.683128
Giant Eagle - Warehouse,15205,40.453507,-80.085371
TC Chevrolet,97520,42.219548,-122.740005
Florida Power & Light - Central Garage,33130,25.7703,-80.196621
Florida Power & Light - Automotive Engineering Center,33407,26.769595,-80.102645
Florida Power & Light - Jupiter Service Center,33458,26.932602,-80.118594
Florida Power & Light - Customer Service East,33407,26.764076,-80.10151
Florida Power & Light - LeJeune Flagler Office,33134,25.770827,-80.264645
Florida Power & Light - Dade Meters Distribution,33166,25.833883,-80.313867
Randolph-Macon College - Andrews Hall,23005,37.764986,-77.476715
Saint Francis Eastside Hospital - Bon Secours Health System,29615,34.850504,-82.322852
Fred Caldwell Chevrolet,29710,35.105398,-81.208515
Meridian Associates Inc,1915,42.562222,-70.88959
Smithsonian Environmental Research Center (SERC),21037,38.893647,-76.539373
NV ENERGY NV ENERGY 03,89146,36.145081,-115.227058
James J Peters VA Medical Center,10468,40.867403,-73.906405
Greenville-Spartanburg International Airport - National Car Rental,29651,34.889277,-82.215666
Greenville-Spartanburg International Airport - Parking Lot B,29651,34.889453,-82.215505
PIE AE ANIMAL SERVICE2,78702,30.251357,-97.689015
PIE AE PUBDITTMAR2,78745,30.18534,-97.801184
PIE AE MILWOOD LIB 2,78727,30.422284,-97.71646
PIE AE PUB-STDAVIDSST1,78701,30.268887,-97.738936
Mountain View Civic Center Garage,94041,37.390383,-122.0827
Towers at Great America,95054,37.397144,-121.976831
Advanced Micro Devices Inc,95054,37.38237,-121.970806
Harrisonburg Electric Commission,22801,38.447533,-78.870744
Country Chevrolet,55302,45.256075,-94.107832
City of Kingsport - Parking Garage,37660,36.547921,-82.56179
PUBLIC STATIONS FITCHBURG CC,53711,43.002006,-89.423463
PUBLIC STATIONS LAKE ST ADA,53715,43.074008,-89.397267
PUBLIC STATIONS VILAS ZOO ADA,53715,43.058323,-89.410359
Marsh Street Parking Structure,93401,35.279705,-120.6609
Wilkerson Nature Preserve Park,27614,35.92353,-78.599883
Caplan's Rainbow Parking,98104,47.604115,-122.332907
Airlie Center,20187,38.7566,-77.793511
HIGHLANDCHEVRON HIGHLAND DUAL 1,97005,45.475962,-122.825561
Arlington County CSW,22201,38.889751,-77.08499
IBEWLOCAL26JATC MANASSAS 1,20109,38.803836,-77.516487
CITY OF SEATAC CITY HALL 1,98188,47.434021,-122.273183
Puget Sound Energy,98409,47.22213,-122.478493
TPU TPU HQ #6,98409,47.228593,-122.484226
LEE COUNTY GOV ADMIN EAST,33901,26.642789,-81.869132
OUC SHERATON UNIT 1,32819,28.463514,-81.461419
OUC OUC GARDENIA 01,32839,28.503733,-81.422651
CITY OF TAMPA TWIGGS GARAGE 1,33602,27.951258,-82.451781
DTE Energy - Ann Arbor Ashley Mews Building,48104,42.277419,-83.749477
DTE Energy - Redford Service Center,48239,42.374558,-83.281933
CLT AIRPORT BV2 BASEMENT 1,28208,35.233542,-80.936932
PALMER SQUARE CHAMBERS GARAGE,8542,40.350118,-74.662732
Mission Trail Baptist Hospital,78235,29.343808,-98.436931
Department of Accounting General Services - Hawaii State Motor Pool,96813,21.303788,-157.860031
Hawaii State Capitol Basement Parking Garage,96813,21.30703,-157.857725
Hawaii State Office Tower,96813,21.309472,-157.857848
Ka'ahumanu Hale First Circuit Court Parking Garage,96813,21.302295,-157.861322
Sheraton Waikiki,96815,21.27871,-157.83013
Waikiki Beach Marriott,96815,21.272518,-157.823246
McHenry Row - Harris Teeter,21230,39.26894,-76.5996
American Bush - Solar Canopy,84115,40.714413,-111.900552
Anchor Nissan,2896,41.96108,-71.494611
Net Zero USA,30004,34.138312,-84.251109
Ashforth,6905,41.071157,-73.549133
City of Tacoma - Municipal Building,98402,47.255854,-122.44172
CITY BRADENTON RIVERWALK,34205,27.499076,-82.569442
Orlando Health - Dr. P Phillips Hospital,32819,28.429987,-81.475116
OUC OUC PERSHING 01,32822,28.499373,-81.303897
OUC OC FAMILY SERV,32806,28.51288,-81.358702
DON CESAR HOTEL EV CHARGER 01,33706,27.709441,-82.736735
HARVARD PILGRIM HPHCQ2,2169,42.232376,-71.019877
GVSU CAMPUS SEWARD RAMP 1,49504,42.964844,-85.681992
NEMC GREEN HCOC III,48377,42.499039,-83.439339
Duke Energy,45202,39.09971237,-84.50933838
Park 'N Fly,77032,29.94917,-95.33138
BELLEVUE SBCC #2,98006,47.568871,-122.145285
SAMMAMISH GARAGE 1,98075,47.601657,-122.036938
CITY BRADENTON JUDICIALGARAGE2,34205,27.493279,-82.573234
Embassy Suites Hotel - Waikiki Beach Walk,96815,21.279142,-157.831689
Ohana Waikiki East,96815,21.277846,-157.825052
Kwik Star #490,50613,42.470441,-92.447165
Kwik Star #468,50616,43.064697,-92.679504
Kwik Star #495,52003,42.491964,-90.702489
Kwik Trip #622,55920,44.029434,-92.647766
Kwik Trip #497,55925,43.923929,-91.438722
Kwik Trip #316,55350,44.871014,-94.37622
Kwik Trip #844,55041,44.443257,-92.27515
Kwik Trip #806,55060,44.090303,-93.218557
Kwik Trip #681,55376,45.217806,-93.598222
Raleigh Municipal Building Deck,27601,35.779082,-78.641779
City of Raleigh,27601,35.777283,-78.639281
City of Raleigh - Walnut Creek Wetland Center,27610,35.760503,-78.625345
City of Raleigh - Optimist Park and Community Center,27609,35.862603,-78.643641
City of Raleigh - Jaycee Park and Community Center,27607,35.800443,-78.663445
City of Raleigh - Wilders Grove,27610,35.788789,-78.573106
City of Raleigh - Transit Center,27610,35.767483,-78.563464
City of Raleigh - Transit Center,27610,35.767483,-78.563464
Giant Eagle #43 - Pine Township,15090,40.632138,-80.054285
Kwik Trip #430,54304,44.475101,-88.07411
Kwik Trip #633,54701,44.770755,-91.462562
Kwik Trip #485,53121,42.694575,-88.54249
Kwik Trip #367,53933,43.567014,-88.916183
Kwik Trip #827,54304,44.49794,-88.047556
Kwik Trip #761,54601,43.808392,-91.249744
Kwik Trip #434,54956,44.175548,-88.486274
Kwik Trip #422,53154,42.87166,-87.933821
Kwik Trip #741,54902,43.995124,-88.54311
Kwik Trip #338,54467,44.469299,-89.545776
Kwik Trip #653,53901,43.534255,-89.443353
Kwik Trip #453,54022,44.872692,-92.620617
Kwik Trip #897,53083,43.773321,-87.733952
Kwik Trip #436,53186,42.994746,-88.201575
Kwik Trip #832,53597,43.191654,-89.452404
Kwik Trip #845,54982,44.073397,-89.283061
Paul Masse Chevrolet,2914,41.823099,-71.347614
Town of Normal - Fire Department Headquarters,61761,40.505132,-88.994211
Town of Normal - Public Works Department,61761,40.496969,-89.004735
Beaufort Street Parking Deck,61761,40.507954,-88.986429
Whole Foods Market,70115,29.920829,-90.117642
Loyola University - New Orleans,70118,29.9347,-90.120883
Heartland Community College - Workforce Development Center,61761,40.535456,-89.013791
New Belgium Brewing,80524,40.593417,-105.0684
NIPSCO HEADQUARTERS-E,46410,41.460671,-87.327074
City of Boulder - Municipal Service Center,80301,40.024578,-105.232194
City of Boulder - Park Central Building,80302,40.0148,-105.2792
Frito Lay LLC,43213,39.986545,-82.823727
Ohio Statehouse Parking Garage,43215,39.960356,-82.998458
GATEWAY TECH ELKHORN 1,53121,42.666735,-88.524261
Riteway Bus Service Inc,53154,42.909432,-87.928747
Norwich Public Utilities,6360,41.526802,-72.063684
OUC INFUSION TEA 01,32804,28.565738,-81.389771
Marriott - Wailea Beach,96753,20.688309,-156.439752
Heartland Community College - Astroth Community Education Center,61761,40.534785,-89.011493
CITY OF GR PARK GOV CENTER RAMP,49503,42.969202,-85.670457
CITY OF GR PARK OTTAWA FULTON 1,49503,42.963679,-85.670993
Ann Arbor Downtown Development Authority - Library Parking Structure,48104,42.278754,-83.745565
CITY OF GR PARK GALLERY PLACE,49503,42.962871,-85.668737
Alexander's Storage,38401,35.61323,-87.034614
Balise Nissan - Warwick,2888,41.742755,-71.428289
Elizabeth Parking Authority - J Christian Bollwage Garage,7201,40.663848,-74.216585
The Green Parking Garage,28202,35.223874,-80.846273
Middle Tennessee Electric Membership Corp - Corporate Headquarters,37129,35.837613,-86.407098
Eaton Corp,15108,40.492883,-80.200182
AAA Car Care Plus,14226,42.979363,-78.821443
AAA Car Care Plus,14221,42.965851,-78.69278
Tynan's Nissan,80525,40.505604,-105.078041
WHOLE FOODS MKT OKCWESTERN 2,73118,35.533862,-97.531053
Mountain Energy Market of Vermont,5155,43.199508,-72.820633
COL GARAGE EVSE 1,33801,28.04433,-81.954245
NATIONAL GRID CHILIS LEOMNSTR,1453,42.525121,-71.713346
NATIONAL GRID CHILIS WESTFORD,1886,42.5703,-71.41896
NATIONAL GRID UNION STATION 1,1604,42.260546,-71.794678
UM PTS GRAND,21201,39.290036,-76.621894
UM PTS PEARL #3,21201,39.290764,-76.62439
UM PTS PRATT,21201,39.28651,-76.624935
UM PTS PLAZA #1,21201,39.28808,-76.622679
DTE Energy - Western Wayne Center,48111,42.244351,-83.444131
DTE Energy - Pontiac Service Center,48320,42.615654,-83.324374
DTE Energy - Headquarters Cato Substation,48226,42.335279,-83.057424
DTE Energy - Headquarters Directors Lot,48226,42.334668,-83.056126
DTE Energy - Headquarters Employee Lot,48226,42.334232,-83.0566
University of Detroit Mercy,48221,42.41423,-83.1364
THOMSON REUTERS EAGAN CAMPUS,55123,44.825192,-93.112679
FLASTER GREENBERG PC,8002,39.934849,-75.029991
ACC ROUNDROCK STAT4,78665,30.563925,-97.658312
JBG SMITH STATION 2,22201,38.890342,-77.085782
JBG SMITH 2231 CRYSTAL DR,22202,38.85424,-77.049408
IBEW LOCAL 46 IBEW LOCAL 46 1,98032,47.424222,-122.256619
VALLEY MED CTR MAIN LOT #5,98055,47.443255,-122.212445
VALLEY MED CTR N GARAGE #1,98055,47.444606,-122.214491
PUBLIC STATIONS ALDO LEOPOLD,53716,43.054704,-89.321148
North Carolina State University - McKimmon Center and Solar House,27606,35.78214,-78.6864
Cambria Suites - Traverse City,49686,44.763048,-85.585342
Great Escape Restaurant,60176,41.955233,-87.865268
Taylor Automotive,27330,35.49416,-79.180591
EVSP WALGREENS STORE 13012,20112,38.672391,-77.396964
ACCESS MAIL EVSE UNIT 01,33760,27.901732,-82.721249
OUC HILTON UNIT 01,32819,28.425298,-81.456277
OUC STCL CITY HALL1,34769,28.249967,-81.28294
OUC STCL SR CTR 1,34769,28.250888,-81.279774
EVSP WALGREENS STORE 5623,21215,39.326834,-76.681801
EVSP WALGREENS STORE 6396,21237,39.334156,-76.495725
Goodwill,55434,45.183283,-93.237039
Minnesota Department of Natural Resources,55155,44.956138,-93.084209
City of Columbia - Sumter Street Garage,29201,34.004883,-81.032931
City of Columbia - Lady Street Garage,29201,34.002107,-81.035726
Malibu Country Mart,90265,34.035802,-118.686393
Golden Gate National Recreation Area - Crissy Field,94129,37.806099,-122.449461
Tampa Area Electrical JATC,33610,27.988197,-82.392164
Miami Dade County Fleet,33128,25.7752,-80.198072
University of Connecticut - Motor Pool,6269,41.811817,-72.261825
Balise Nissan - Warwick,2888,41.742755,-71.428289
Middle Tennessee Electric Membership Corp - District Office,37067,35.922223,-86.821182
Nissan North America,37067,35.940203,-86.813764
Middle Tennessee Electric Membership Corp - District Office,37090,36.174597,-86.298021
Middle Tennessee Electric Membership Corp - District Office,37128,35.843311,-86.446636
City of Renton - City Shops,98056,47.483635,-122.170748
City of Renton - City Hall,98057,47.474537,-122.204976
PW PARKING A ST GARAGE 01,98402,47.253809,-122.437429
PW PARKING GLASS MUSEUM 01,98402,47.245934,-122.43398
Pierce County - Annex Lot,98409,47.228866,-122.469105
Pierce County - City Building,98402,47.253668,-122.446141
Tremont Street Garage,80202,39.742113,-104.991416
Greater Hartford Transit District - Spruce Street Lot,6103,41.769417,-72.681825
One Parking,20004,38.896703,-77.027621
Carriage Nissan,30504,34.275207,-83.85946
Town Center Nissan,30144,34.010005,-84.577162
State Street Garage,2109,42.358449,-71.055089
MASS AUDUBON JOPPA FLATS,1950,42.799163,-70.847133
NATIONAL GRID CHILIS PLNVILLE,2762,42.032751,-71.311914
Carolina Nissan,27215,36.063557,-79.503697
Carolina Nissan,27215,36.063557,-79.503697
North Carolina State University - Joyner Visitor Center,27606,35.784037,-78.684667
Carmine's Coal Fired Pizza,33458,26.892152,-80.102668
AC REG PLANNING STATION 1,5753,44.015999,-73.165412
Delta Electronics,94538,37.488952,-121.948969
Campbell-Nelson Nissan,98026,47.778229,-122.344838
Campbell Nissan - Everett,98204,47.90272982,-122.2469884
Olympia Nissan,98502,47.031067,-122.930247
Bill Robertson Nissan,99301,46.236607,-119.128998
Puyallup Nissan,98371,47.207367,-122.294997
Younker Nissan,98058,47.448354,-122.2188
City of Seattle - Central Library,98104,47.606684,-122.332664
City of Seattle - Charles Street,98134,47.594042,-122.317179
City of Seattle - Muni Tower,98124,47.604906,-122.330278
City of Seattle - Parking Enforcement Division,98134,47.582934,-122.323106
City of Seattle - Seattle Center,98109,47.622085,-122.347124
City of Seattle - Seattle City Light North Service Center,98103,47.699613,-122.341922
City of Seattle - Seattle City Light South Service Center,98134,47.571399,-122.330911
City of Seattle - Seattle Water Ops,98134,47.57952,-122.321401
City of Seattle - West Bridge,98106,47.565149,-122.353024
Tacoma Nissan,98409,47.21978,-122.48576
Thruway Nissan,12550,41.504105,-74.068916
Thruway Nissan,12550,41.504105,-74.068916
Country Club Imports,13820,42.451285,-75.100333
Country Club Imports,13820,42.451285,-75.100333
West-Herr Nissan,14127,42.784867,-78.76558
West-Herr Nissan,14127,42.784867,-78.76558
Nissan 112,11772,40.792986,-73.00827
Nissan 112,11772,40.792986,-73.00827
Huttig Nissan,12901,44.667361,-73.444894
Huttig Nissan,12901,44.667361,-73.444894
Nissan City - Port Chester,10573,40.996358,-73.669405
Nissan City - Port Chester,10573,40.996358,-73.669405
Riverhead Auto Mall,11901,40.924758,-72.704752
Riverhead Auto Mall,11901,40.924758,-72.704752
Dorschel Nissan,14623,43.077581,-77.641934
Dorschel Nissan,14623,43.077581,-77.641934
Smithtown Nissan,11780,40.859886,-73.162067
Smithtown Nissan,11780,40.859886,-73.162067
Lia Nissan,12304,42.764517,-73.88522
Lia Nissan,12304,42.764517,-73.88522
Legend Nissan,11791,40.809865,-73.507761
Gregoris Motors,11580,40.670497,-73.717206
Gregoris Motors,11580,40.670497,-73.717206
Legend Nissan,11791,40.809865,-73.507761
Serafini Nissan-Volvo,13850,42.095812,-76.003703
Serafini Nissan-Volvo,13850,42.095812,-76.003703
Poughkeepsie Nissan,12590,41.587383,-73.908392
Poughkeepsie Nissan,12590,41.587383,-73.908392
Vision Nissan,14580,43.204065,-77.478237
Vision Nissan,14580,43.204065,-77.478237
Nissan of Westbury,11590,40.753954,-73.561974
Nissan of Westbury,11590,40.753954,-73.561974
West Herr Nissan - Williamsville,14221,42.96275,-78.691132
Nissan of Yorktown Heights,10598,41.289317,-73.835547
Nissan of Yorktown Heights,10598,41.289317,-73.835547
Carr Nissan,97005,45.491783,-122.81107
Kiefer Nissan,97330,44.572608,-123.258425
Lithia Nissan of Eugene,97401,44.05902085,-123.0813975
Dick Hannah Nissan,97027,45.378967,-122.603899
Chuck Colvin Nissan,97128,45.227394,-123.180863
Lithia Nissan,97504,42.379969,-122.858192
Rustom Nissan - Portland,97230,45.531759,-122.537403
Power Nissan - Salem,97302,44.921582,-123.006236
Tonkin Nissan,97070,45.326814,-122.770853
Advantage Nissan,98312,47.562162,-122.684286
Burien Nissan,98148,47.458466,-122.333257
Lee Nissan - Auburn,4210,44.129326,-70.224225
Ann Arbor Downtown Development Authority - Ann Ashley Parking Structure,48104,42.282617,-83.749329
Ann Arbor Downtown Development Authority - Catherine and Fourth Surface Lot,48104,42.283504,-83.747496
Ann Arbor Downtown Development Authority - Forrest Parking Structure,48104,42.274044,-83.733542
Ann Arbor Downtown Development Authority - Maynard Parking Structure,48104,42.278668,-83.742596
Ann Arbor Downtown Development Authority - William Street Parking Structure,48104,42.278461,-83.747741
Ann Arbor Nissan,48103,42.284242,-83.80855
Ann Arbor Nissan,48103,42.284242,-83.80855
Gezon Motors,49525,43.035997,-85.618662
Gezon Motors,49525,43.035997,-85.618662
Cole Nissan,49008,42.271617,-85.628348
Fox Nissan,49512,42.912537,-85.558232
Fox Nissan,49512,42.912537,-85.558232
Garber Nissan,48604,43.486749,-83.973864
Garber Nissan,48604,43.486749,-83.973864
Traverse City Auto Plaza,49686,44.743331,-85.594781
Traverse City Auto Plaza,49686,44.743331,-85.594781
Suburban Nissan - Troy,48084,42.553452,-83.175063
Suburban Nissan - Troy,48084,42.553452,-83.175063
Northern Wake Tech Community College,27616,35.867552,-78.543695
Whole Foods Market,27615,35.898899,-78.650239
Concord Nissan,3301,43.187837,-71.497717
Concord Nissan,3301,43.187837,-71.497717
Peter's Nissan - Nashua,3063,42.779284,-71.498971
Port City Nissan,3801,43.077355,-70.785285
Port City Nissan,3801,43.077355,-70.785285
Patriot Nissan,3079,42.772666,-71.222512
Patriot Nissan,3079,42.772666,-71.222512
Somersworth Nissan,3878,43.257348,-70.900583
Somersworth Nissan,3878,43.257348,-70.900583
Nissan of Keene,3446,42.878599,-72.233177
Nissan of Keene,3446,42.878599,-72.233177
Autoserv Nissan - Tilton,3276,43.450949,-71.573167
Autoserv Nissan - Tilton,3276,43.450949,-71.573167
Destination Nissan,12206,42.676971,-73.787334
Destination Nissan,12206,42.676971,-73.787334
Mike Barney Nissan,14226,42.979725,-78.797346
Lebrun Nissan,13021,42.966894,-76.535879
Star Nissan,11361,40.758245,-73.776954
Star Nissan,11361,40.758245,-73.776954
Rockland Nissan,10913,41.071072,-73.950866
Rockland Nissan,10913,41.071072,-73.950866
Bay Ridge Nissan,11220,40.636324,-74.019228
Bay Ridge Nissan,11220,40.636324,-74.019228
Kings Nissan,11235,40.589167,-73.960707
Kings Nissan,11235,40.589167,-73.960707
Burdick Nissan,13039,43.147147,-76.114274
Burdick Nissan,13039,43.147147,-76.114274
Hoselton Nissan,14445,43.100001,-77.481422
Hoselton Nissan,14445,43.100001,-77.481422
Rockaway Nissan,11096,40.622268,-73.742699
Rockaway Nissan,11096,40.622268,-73.742699
Maguire Nissan,14850,42.435042,-76.5088
Maguire Nissan,14850,42.435042,-76.5088
Nemet Motors,11432,40.707242,-73.803844
Nemet Motors,11432,40.707242,-73.803844
Treiber Nissan,12095,43.025044,-74.358103
Treiber Nissan,12095,43.025044,-74.358103
Nissan - Garden City,11550,40.71693,-73.630152
Nissan - Garden City,11550,40.71693,-73.630152
Simmons Rockwell Nissan,14845,42.16246,-76.867435
Simmons Rockwell Nissan,14845,42.16246,-76.867435
Nissan - Huntington,11746,40.834455,-73.379693
Nissan - Huntington,11746,40.834455,-73.379693
Kingston Nissan,12401,41.948965,-74.032033
West Herr Nissan,14094,43.128557,-78.696197
West Herr Nissan,14094,43.128557,-78.696197
Team Nissan,3103,42.953204,-71.44115
Team Nissan,3103,42.953204,-71.44115
Nissan Kia - Middletown,10958,41.40859,-74.413372
Nissan Kia - Middletown,10958,41.40859,-74.413372
Nissan of New Rochelle,10801,40.919104,-73.776645
Nissan of New Rochelle,10801,40.919104,-73.776645
Bommarito Nissan - Ballwin,63011,38.593551,-90.532572
Bommarito Nissan - Ballwin,63011,38.593551,-90.532572
Joe Machens Nissan,65203,38.967693,-92.334399
Joe Machens Nissan,65203,38.967693,-92.334399
Fenton Nissan - Tiffany Spring,64153,39.267153,-94.666038
Fenton Nissan - Tiffany Spring,64153,39.267153,-94.666038
Lee's Summit Nissan,64081,38.901254,-94.34927
Lee's Summit Nissan,64081,38.901254,-94.34927
Rolling Hills Nissan,64506,39.780953,-94.800709
Rolling Hills Nissan,64506,39.780953,-94.800709
Suntrup Nissan-Volkswagen,63123,38.5207,-90.343967
Suntrup Nissan-Volkswagen,63123,38.5207,-90.343967
Saint Charles Nissan,63376,38.797781,-90.598753
Saint Charles Nissan,63376,38.797781,-90.598753
Asheville Chamber of Commerce & Visitors Center,28801,35.597527,-82.560582
College Street Parking Deck,28801,35.597377,-82.549206
Ingles Markets - Skyland Plaza,28803,35.499836,-82.522586
McLarty Daniel Nissan,72712,36.34538,-94.182742
McLarty Daniel Nissan,72712,36.34538,-94.182742
Superior Nissan - Conway,72032,35.09414,-92.4223
Superior Nissan - Conway,72032,35.09414,-92.4223
Superior Nissan,72703,36.112917,-94.144548
Superior Nissan,72703,36.112917,-94.144548
Orr Nissan - Fort Smith,72908,35.320472,-94.397408
Orr Nissan - Fort Smith,72908,35.320472,-94.397408
Orr Nissan - Hot Springs,71913,34.453266,-93.066286
Orr Nissan - Hot Springs,71913,34.453266,-93.066286
Central Nissan,72404,35.804632,-90.67099
McLarty Nissan - Little Rock,72210,34.711439,-92.404311
McLarty Nissan - Little Rock,72210,34.711439,-92.404311
McLarty Nissan - North Little Rock,72117,34.810013,-92.205719
McLarty Nissan - North Little Rock,72117,34.810013,-92.205719
Welch Motor Co,71601,34.203951,-92.006625
Welch Motor Co,71601,34.203951,-92.006625
EVSP WALGREENS STORE 11241,92656,33.577103,-117.723844
Bridgeport Hospital,6610,41.190701,-73.166282
Lia Nissan - Enfield,6082,41.997574,-72.574713
Lia Nissan - Enfield,6082,41.997574,-72.574713
Paul Miller Nissan,6825,41.167407,-73.233711
Harte Nissan,6120,41.791382,-72.656681
Harte Nissan,6120,41.791382,-72.656681
Manchester City Nissan,6040,41.814316,-72.507845
Manchester City Nissan,6040,41.814316,-72.507845
County Line Buick-Nissan,6762,41.568122,-73.098764
County Line Buick-Nissan,6762,41.568122,-73.098764
Middletown Nissan,6457,41.59054,-72.676141
Middletown Nissan,6457,41.59054,-72.676141
Napoli Nissan,6460,41.209761,-73.083686
Napoli Nissan,6460,41.209761,-73.083686
Executive Nissan,6473,41.360892,-72.870997
Executive Nissan,6473,41.360892,-72.870997
Gates Nissan,6256,41.728247,-72.188445
Grossman Nissan,6475,41.309276,-72.383105
D'Addario Nissan,6484,41.299792,-73.106051
Barberino Nissan,6492,41.467376,-72.817586
Barberino Nissan,6492,41.467376,-72.817586
George Harte Nissan,6516,41.307602,-72.968506
George Harte Nissan,6516,41.307602,-72.968506
Hoffman Nissan,6092,41.820371,-72.869319
Hoffman Nissan,6092,41.820371,-72.869319
Bruce Bennett Nissan,6897,41.258992,-73.435546
Bruce Bennett Nissan,6897,41.258992,-73.435546
Weston Nissan,33331,26.073774,-80.361864
Gates Nissan,6256,41.728247,-72.188445
Lithia Nissan - Ames,50010,41.997327,-93.610192
John Deery Motors,50613,42.513038,-92.440119
John Deery Motors,50613,42.513038,-92.440119
Dave Wright Nissan,52233,42.04721375,-91.68081742
Dave Wright Nissan,52233,42.04721375,-91.68081742
Lujack Nissan,52806,41.558296,-90.578545
Kwik Star #790,52057,42.483018,-91.470641
Billion Auto Nissan Sioux City,51106,42.439756,-96.359313
Billion Auto Nissan Sioux City,51106,42.439756,-96.359313
Kwik Trip #721,53559,43.169121,-89.069526
Kwik Trip #742,54901,44.043494,-88.543579
Alan Webb Nissan,98662,45.648094,-122.597954
Valley Nissan,98901,46.590246,-120.500687
Valley Nissan,98901,46.590246,-120.500687
City of Rock Island Parking Ramp,61201,41.509406,-90.577025
IMRA America,48105,42.289937,-83.67309
City of Houghton,49931,47.12194,-88.56942
NATIONAL GRID REVERE 99,2151,42.410782,-70.996891
NATIONAL GRID ROCKLANDLIBRARY,2370,42.132105,-70.916995
FAYETTEVILLE NC FRANKLIN 2,28301,35.052556,-78.880206
OUC AVALON PARK 1,32828,28.510519,-81.154682
CITY OF ORLANDO GEICO UNIT 01,32805,28.537663,-81.384224
OUC COO CNL P4-02,32801,28.536837,-81.380623
OUC STCL CIVIC CTR1,34769,28.241623,-81.307326
WEST HALF 2 & 3 1400 JOYCE,22202,38.861644,-77.064159
Snohomish County - Evergreen Fairgrounds,98272,47.868914,-121.987449
E & M Electric,95448,38.6085938,-122.8688
CITY OF DUBLIN STATION 3,94568,37.702909,-121.91835
Gates Nissan,40475,37.761605,-84.273733
Legacy Nissan,40741,37.105179,-84.079467
Don Franklin Nissan - Lexington,40509,37.997336,-84.441827
Bob Allen Nissan,40422,37.657747,-84.784008
Bergeron Automotive,70002,30.004818,-90.16093
Van Meter Inc,52246,41.645241,-91.545962
Seattle City Light,98283,48.673466,-121.261467
Lewis Nissan,25801,37.815464,-81.185243
Lewis Nissan,25801,37.815464,-81.185243
Premier Nissan,26501,39.646525,-80.002049
Premier Nissan,26501,39.646525,-80.002049
Nissan of Omaha,68118,41.264912,-96.187831
Nissan of Omaha,68118,41.264912,-96.187831
Elite Nissan of Bergenfield,7621,40.917338,-73.997447
Lynnes Nissan City,7003,40.784797,-74.193494
Route 23 Nissan,7405,40.991256,-74.347338
Route 23 Nissan,7405,40.991256,-74.347338
Cherry Hill Nissan,8002,39.939502,-75.011984
Cherry Hill Nissan,8002,39.939502,-75.011984
Hilltop Nissan,7936,40.807195,-74.371329
Fred Beans Nissan - Flemington,8822,40.48774,-74.86328
Fred Beans Nissan - Flemington,8822,40.48774,-74.86328
DCH Freehold Nissan,7728,40.263381,-74.292408
DCH Freehold Nissan,7728,40.263381,-74.292408
Mt. Holly Nissan,8036,39.982438,-74.808764
Route 33 Nissan,8690,40.229274,-74.672155
Route 17 Nissan,7604,40.850992,-74.075092
Route 17 Nissan,7604,40.850992,-74.075092
Route 22 Nissan,7205,40.696469,-74.219681
Pine Belt Nissan - Keyport,7735,40.42832,-74.192387
Pine Belt Nissan - Keyport,7735,40.42832,-74.192387
Causeway Nissan,8050,39.701442,-74.271282
Acme Nissan,8852,40.40938,-74.506017
Acme Nissan,8852,40.40938,-74.506017
Sansone Jr's 66 Nissan,7753,40.228608,-74.068718
Sansone Jr's 66 Nissan,7753,40.228608,-74.068718
North Plainfield Nissan,7060,40.630184,-74.433373
North Plainfield Nissan,7060,40.630184,-74.433373
Nissan of Stanhope,7874,40.929732,-74.71888
Nissan of Stanhope,7874,40.929732,-74.71888
Pine Belt Automotive,8753,39.961373,-74.180868
Pine Belt Automotive,8753,39.961373,-74.180868
Nissan 46,7512,40.894133,-74.232511
Nissan 46,7512,40.894133,-74.232511
Ramsey Nissan,7458,41.053216,-74.120288
Ramsey Nissan,7458,41.053216,-74.120288
Team Nissan,8360,39.462013,-75.043179
Team Nissan,8360,39.462013,-75.043179
Woodbury Nissan,8096,39.83206,-75.1581
Woodbury Nissan,8096,39.83206,-75.1581
Fred Martin Nissan,44312,40.978905,-81.494254
Fred Martin Nissan,44312,40.978905,-81.494254
Jeff Schmitt Nissan,45434,39.708775,-84.026292
Jeff Schmitt Nissan,45434,39.708775,-84.026292
Bedford Nissan,44146,41.402746,-81.552724
Bedford Nissan,44146,41.402746,-81.552724
Boardman Nissan,44512,41.010633,-80.662082
Boardman Nissan,44512,41.010633,-80.662082
Thayer Nissan,43402,41.415799,-83.651786
Thayer Nissan,43402,41.415799,-83.651786
Busam Motor Sales,45246,39.285136,-84.447192
Busam Motor Sales,45246,39.285136,-84.447192
Jeff Wyler Nissan - Cincinnati,45251,39.228991,-84.588623
Jeff Wyler Nissan - Cincinnati,45251,39.228991,-84.588623
Kings Nissan,45249,39.295523,-84.311517
Kings Nissan,45249,39.295523,-84.311517
Germain Nissan,43230,40.057068,-82.885518
Germain Nissan,43230,40.057068,-82.885518
The Electrical Trades Center,43212,39.974166,-83.02872
Ron Marhofer Nissan,44221,41.11975,-81.48296
Ron Marhofer Nissan,44221,41.11975,-81.48296
Matt Castrucci Nissan,45459,39.638788,-84.221675
Matt Castrucci Nissan,45459,39.638788,-84.221675
Parkway Nissan Lincoln Mercury,44622,40.523001,-81.489388
Parkway Nissan Lincoln Mercury,44622,40.523001,-81.489388
Jeff Wyler Nissan - Fairfield,45014,39.329217,-84.517152
Jeff Wyler Nissan - Fairfield,45014,39.329217,-84.517152
Warner Nissan,45840,41.058412,-83.614262
Buckeye Nissan,43026,40.031602,-83.125728
Buckeye Nissan,43026,40.031602,-83.125728
Reineke Nissan,45805,40.757603,-84.146368
Nissan of Mansfield,44906,40.759025,-82.567985
Nissan of Mansfield,44906,40.759025,-82.567985
Ganley Nissan,44124,41.519706,-81.461226
Ganley Nissan,44124,41.519706,-81.461226
Ken Ganley Nissan,44256,41.134139,-81.793566
Ken Ganley Nissan,44256,41.134139,-81.793566
Mentor Nissan,44060,41.68165,-81.339516
Mentor Nissan,44060,41.68165,-81.339516
Nissan of North Olmsted,44070,41.409652,-81.938059
Nissan of North Olmsted,44070,41.409652,-81.938059
I-90 Nissan,44054,41.423584,-82.088115
Nissan of Streetsboro,44241,41.248333,-81.362879
Nissan of Streetsboro,44241,41.248333,-81.362879
Yark Nissan,43615,41.675335,-83.684803
Yark Nissan,43615,41.675335,-83.684803
Beau Townsend Nissan,45377,39.888695,-84.218465
Beau Townsend Nissan,45377,39.888695,-84.218465
Sims Buick-GMC-Nissan,44483,41.263756,-80.782876
Interstate Mitsubishi,16509,42.054742,-80.105109
City of Charleston - Gaillard Auditorium,29401,32.787311,-79.930037
City of Charleston - Queen Street Garage,29401,32.777245,-79.933619
City of Charleston - Visitor Center Garage,29403,32.790806,-79.938
Coastal Carolina University,29526,33.799792,-79.01138
Horry County Library,29526,33.841727,-79.051177
Union County Advanced Technology Center,29353,34.761595,-81.646791
Horry Georgetown Technical College - Speir Building,29577,33.661672,-78.937739
City of Rock Hill - YMCA,29730,34.977,-80.9771
City of Rock Hill - City Hall,29730,34.924189,-81.02889
City of Spartanburg - Municipal Parking Garage,29306,34.948192,-81.927953
City of Spartanburg - Municipal Parking Garage,29306,34.949604,-81.933288
City of Spartanburg - Administration Building,29303,34.955945,-81.93733
Spartanburg Marriott,29306,34.954092,-81.933172
City of Spartanburg - Public Works Building,29302,34.94118,-81.909739
University of South Carolina - Union,29379,34.716959,-81.621094
City of Conway - Public Parking Lot,29526,33.836216,-79.048195
City of Rock Hill - York County Airport,29732,34.987457,-81.060145
Shirlie Slack Mitsubishi,22408,38.271867,-77.493368
Waikele Center,96797,21.400736,-158.002668
Mike Miller Mitsubishi,61615,40.784164,-89.623657
Leglue Nissan,71303,31.296699,-92.516114
Leglue Nissan,71303,31.296699,-92.516114
Royal Nissan,70815,30.439653,-91.085484
Royal Nissan,70815,30.439653,-91.085484
Orr Nissan,71111,32.556206,-93.724758
Jerry Rome Nissan,1089,42.119685,-72.626476
Jerry Rome Nissan,1089,42.119685,-72.626476
Westborough Mitsubishi,1581,42.286247,-71.594009
DTE Energy - Mount Clemens Service Center,48036,42.613655,-82.88299
DTE Energy - Headquarters Mail Room Loading Dock Garage,48226,42.33466,-83.057153
Gray-Daniels Nissan - Brandon,39042,32.280561,-90.032108
Gray-Daniels Nissan - Brandon,39042,32.280561,-90.032108
Paul Barnett Nissan,39601,31.578085,-90.463742
Paul Barnett Nissan,39601,31.578085,-90.463742
Columbus Nissan,39702,33.520806,-88.362801
Columbus Nissan,39702,33.520806,-88.362801
James Ceranti Nissan,38703,33.400588,-91.008332
James Ceranti Nissan,38703,33.400588,-91.008332
Cannon Nissan,38930,33.525183,-90.207653
Grenada Nissan,38901,33.785742,-89.852801
Grenada Nissan,38901,33.785742,-89.852801
Pat Peck Nissan,39503,30.425992,-89.091508
Petro Nissan,39402,31.3178137,-89.3946827
Petro Nissan,39402,31.3178137,-89.3946827
Cannon Nissan - Jackson,39204,32.273401,-90.194078
Cannon Nissan - Jackson,39204,32.273401,-90.194078
Gray-Daniels Nissan - Jackson,39211,32.39278,-90.144432
Gray-Daniels Nissan - Jackson,39211,32.39278,-90.144432
Estabrook Motor Co,39567,30.374076,-88.539909
Estabrook Motor Co,39567,30.374076,-88.539909
Nissan of Picayune,39466,30.513154,-89.663644
Landers Nissan,38671,34.9616327,-89.9855855
Landers Nissan,38671,34.9616327,-89.9855855
Blackburn Nissan,39180,32.325412,-90.866422
Blackburn Nissan,39180,32.325412,-90.866422
"CHARLOTTE, NC CMGC STATION 4",28202,35.221981,-80.839984
"CHARLOTTE, NC MALLARD CK 02",28262,35.323848,-80.773027
Eddie Tourelle's Northpark Nissan,70433,30.445288,-90.083166
Bill Hood Nissan,70401,30.50375,-90.48208
Giles Nissan,70503,30.165233,-92.083374
Premier Nissan - Metairie,70003,30.003547,-90.165986
Premier Nissan - Metairie,70003,30.003547,-90.165986
Sparks Nissan,71203,32.500127,-92.07881
Sparks Nissan,71203,32.500127,-92.07881
Matt Bowers Nissan,70128,30.05165,-89.95182
Nissan of Opelousas,70570,30.512581,-92.070331
Bertera Nissan,1501,42.182748,-71.850396
Bertera Nissan,1501,42.182748,-71.850396
Battles Nissan,2532,41.738842,-70.586069
Battles Nissan,2532,41.738842,-70.586069
Nissan 24,2301,42.063356,-71.058186
Nissan 24,2301,42.063356,-71.058186
Curry Nissan Chicopee,1020,42.17889,-72.575914
Country Nissan,1035,42.340378,-72.606213
Country Nissan,1035,42.340378,-72.606213
Balise Nissan - Cape Cod,2601,41.663549,-70.299233
Balise Nissan - Cape Cod,2601,41.663549,-70.299233
Sullivan Brothers Nissan,2364,41.976052,-70.7127
Ron Bouchard's Nissan,1523,42.520224,-71.70099
Ron Bouchard's Nissan,1523,42.520224,-71.70099
Kelly Nissan - Lynnfield,1940,42.509982,-71.008978
Kelly Nissan - Lynnfield,1940,42.509982,-71.008978
Marlborough Nissan,1752,42.351115,-71.500717
Marlborough Nissan,1752,42.351115,-71.500717
Colonial Nissan - Medford,2155,42.412492,-71.106619
Colonial Nissan - Medford,2155,42.412492,-71.106619
Nissan Village of North Attleboro,2761,41.960366,-71.342187
Nissan Village of North Attleboro,2761,41.960366,-71.342187
Coastal Nissan,2061,42.165417,-70.887748
Coastal Nissan,2061,42.165417,-70.887748
Boch Nissan,2062,42.192051,-71.18462
Boch Nissan,2062,42.192051,-71.18462
Haddad Nissan,1201,42.445108,-73.256216
Haddad Nissan,1201,42.445108,-73.256216
Quirk Nissan,2169,42.253475,-70.991361
Quirk Nissan,2169,42.253475,-70.991361
Mastria Nissan,2767,41.904046,-71.017203
Mastria Nissan,2767,41.904046,-71.017203
Pearlridge Shopping Center - Uptown,96701,21.384853,-157.941842
Ala Moana Hotel,96814,21.29029,-157.839362
Bishop Museum,96817,21.33372,-157.87072
Central Pacific Plaza,96813,21.307588,-157.860698
Hawaii Prince Golf Club,96706,21.328272,-158.027542
HMSA Center,96814,21.29691,-157.8417
"Hawaii Prince Hotel, Waikiki",96815,21.28609,-157.84001
Hilton Hawaiian Village,96815,21.2839,-157.83639
Waikiki Beachcomber by Outrigger,96815,21.278247,-157.827342
Kahala Mall,96816,21.277863,-157.786459
Kaimuki Shopping Center,96816,21.286596,-157.807802
Kaiser Mapunapuna Clinic Honolulu,96819,21.345833,-157.895
Kapolei Commons,96707,21.32943,-158.09059
Mark's Garage Honolulu HI,96813,21.3114,-157.86082
Ohana Honolulu Airport Hotel,96815,21.336826,-157.917527
Ohana Waikiki Malia,96815,21.280988,-157.828268
Ohana Waikiki West,96815,21.278818,-157.825031
Outrigger Reef,96815,21.27858,-157.832725
Outrigger Waikiki,96815,21.269797,-157.822152
Ross & Pagoda Hotel Garage,96814,21.294867,-157.8408
Stadium Marketplace,96818,21.399297,-158.016044
Topa Financial Center,96813,21.30761,-157.86377
HawaiiUSA Federal Credit Union,96817,21.31554,-157.86213
Waikiki Galleria Tower,96815,21.280349,-157.828812
Waikiki Parc Hotel,96815,21.278092,-157.830594
Kahana Gateway Retail,96761,20.97289,-156.67797
Turtle Bay Resort Hawaii,96731,21.70444,-157.99679
Jim Falk Motors - Maui,96732,20.8891,-156.458605
Four Seasons Resort Hualalai,96740,21.863217,-159.788556
Kona Commons,96740,19.65101,-156.00357
King Windward Nissan,96744,21.399116,-157.799326
Kihei Town Center,96753,20.73329,-156.452204
Hapuna Beach Prince Hotel,96743,19.99483,-155.82305
Mauna Kea Beach Hotel,96743,20.00707,-155.8247
Marriott - Waiohai Beach Club,96756,21.874944,-159.456719
Sheraton Maui Resort & Spa,96761,20.92587,-156.69357
Kauai County Building,96766,21.974621,-159.367732
Kauai Marriott Resort & Beach Club,96766,21.965581,-159.357212
Kuhio Nissan,96766,21.968189,-159.357009
Kuhio Nissan,96766,21.968189,-159.357009
Moanalua Shopping Center,96818,21.34425,-157.92861
Princeville Shopping Center,96722,22.212721,-159.476393
Westin Princeville Resort,96722,22.222851,-159.46862
"Four Seasons Resort, Wailea",96753,20.67927,-156.44165
Maui Memorial Medical Center,96793,20.884721,-156.488527
Kaiser Waipio Clinic Hawaii,96797,21.42579,-157.99713
City of Auburn Hills - Administrative Campus,48326,42.670667,-83.220974
Amador Transit,95685,38.379983,-120.807672
ComEd,60077,42.048674,-87.756383
ComEd,60445,41.647334,-87.729414
ComEd,60153,41.874415,-87.8337901
PMC Enterprises,31029,33.020179,-83.912616
Solar by Harrimans,34285,27.083031,-82.42344
WHOLE FOODS MKT BEE CAVE ST1,78738,30.307388,-97.938035
Smith & Associates,77040,29.84499,-95.505905
Courtyard By Marriott - Plano Parkway,75093,33.01736,-96.7937
OAK HARBOR OH DUAL #1,98277,48.288066,-122.648224
Richland County - Community Center,53581,43.3440922,-90.3889595
City of Durham - Goldenbelt,27701,35.99017,-78.8902
Michael Jordan Nissan,27707,35.97051751,-78.95684759
Workhorse,45150,39.283991,-84.301826
Waikem Auto Family,44646,40.794689,-81.462403
Waikem Auto Family,44646,40.794689,-81.462403
GOOGLE PIT-BAK-3-02,15206,40.457724,-79.916569
Dick Smith Nissan,29223,34.111189,-80.896093
Dick Smith Nissan,29223,34.111189,-80.896093
Freedom Honda Sumter,29150,33.962204,-80.402858
Freedom Honda Sumter,29150,33.962204,-80.402858
Liberty Mitsubishi,57701,44.076491,-103.189869
HCA Corporate Headquarters - Building 1,37203,36.15403028,-86.81379927
Golden Gate Park - Music Concourse Garage,94118,37.768766,-122.468341
CCSF SFMTA SUTTER 3,94108,37.789884,-122.406808
Cupertino Electric,95112,37.36217973,-121.8995386
Vaden Nissan,31419,31.986772,-81.13254
Vaden Nissan,31419,31.986772,-81.13254
Vaden Nissan of Statesboro,30458,32.423702,-81.791801
Flowers Nissan,31792,30.857666,-83.950487
Flowers Nissan,31792,30.857666,-83.950487
Tenneson Nissan,31794,31.441223,-83.524911
Tenneson Nissan,31794,31.441223,-83.524911
Valdosta Nissan,31602,30.883336,-83.269586
Valdosta Nissan,31602,30.883336,-83.269586
Woody Folsom Nissan,30474,32.210564,-82.391607
Best Western - Plaza Hotel,96819,21.336212,-157.913447
C&C HONOLULU FASI CIVIC CTR,96813,21.304625,-157.853919
Hilton - Waikiki Beach,96815,21.275234,-157.821849
J.D. Power & Associates,91362,34.148413,-118.798832
Tynan's Nissan,80012,39.702351,-104.865298
Tynan's Nissan,80012,39.702351,-104.865298
Boulder Nissan,80301,40.025019,-105.258915
Larry H Miller Nissan - Arapahoe,80112,39.594525,-104.872435
Larry H Miller Nissan - Arapahoe,80112,39.594525,-104.872435
South Colorado Springs Nissan,80916,38.81233,-104.756795
South Colorado Springs Nissan,80916,38.81233,-104.756795
Woodmen Nissan,80918,38.931011,-104.811075
Woodmen Nissan,80918,38.931011,-104.811075
Nissan of Durango,81303,37.269708,-107.907728
Nissan of Durango,81303,37.269708,-107.907728
Greeley Nissan,80634,40.39443,-104.736034
Empire Lakewood Nissan,80401,39.732606,-105.163711
Empire Lakewood Nissan,80401,39.732606,-105.163711
Saint Anthony Hospital,80228,39.7171136,-105.1288004
Empire Littleton Nissan,80123,39.626641,-105.090506
Empire Littleton Nissan,80123,39.626641,-105.090506
Valley Nissan,80501,40.151989,-105.108644
Valley Nissan,80501,40.151989,-105.108644
Dave Solon Nissan,81008,38.312144,-104.640891
Dave Solon Nissan,81008,38.312144,-104.640891
Crowley Nissan,6010,41.699374,-72.894672
Goodwin University,6118,41.749499,-72.639362
Town of East Haven,6512,41.277368,-72.871663
Connecticut Department of Energy and Environmental Protection,6106,41.763294,-72.678633
Yale University,6511,41.323894,-72.928583
Summer Street Garage,6901,41.054155,-73.541625
Hertrich Nissan JP-Eagle,19901,39.136284,-75.527155
Sheridan Nissan,19720,39.663533,-75.605014
Sheridan Nissan,19720,39.663533,-75.605014
Porter Nissan,19711,39.687222,-75.740488
Porter Nissan,19711,39.687222,-75.740488
Harbor Nissan,33980,26.966836,-82.076851
Harbor Nissan,33980,26.966836,-82.076851
Fuccillo Nissan,33764,27.911345,-82.728797
Fuccillo Nissan,33764,27.911345,-82.728797
Lokey Nissan,33761,28.024503,-82.738817
Lokey Nissan,33761,28.024503,-82.738817
Coral Springs Nissan,33071,26.23871,-80.251886
Coral Springs Nissan,33071,26.23871,-80.251886
Daytona Nissan,32124,29.215495,-81.10534
Daytona Nissan,32124,29.215495,-81.10534
Sutherlin Nissan,33912,26.539388,-81.870692
Sutherlin Nissan,33912,26.539388,-81.870692
Sutherlin Nissan,34982,27.377265,-80.326861
Sutherlin Nissan,34982,27.377265,-80.326861
Gainesville Nissan,32609,29.689296,-82.318596
Gainesville Nissan,32609,29.689296,-82.318596
Coggin Nissan,32225,30.324014,-81.524719
Coggin Nissan,32225,30.324014,-81.524719
Coggin Nissan at the Avenues,32256,30.172215,-81.544583
Coggin Nissan at the Avenues,32256,30.172215,-81.544583
Jenkins Nissan,33805,28.09809,-81.949333
Jenkins Nissan,33805,28.09809,-81.949333
Jenkins Nissan,34788,28.822813,-81.787457
Jenkins Nissan,34788,28.822813,-81.787457
Bill Ray Nissan,32750,28.724709,-81.316556
Bill Ray Nissan,32750,28.724709,-81.316556
Miller & Miller Nissan,32446,30.782356,-85.245729
Nissan of Melbourne,32901,28.101637,-80.614492
Nissan of Melbourne,32901,28.101637,-80.614492
Naples Nissan,34109,26.211419,-81.744746
Maus Nissan,34652,28.21583,-82.739071
Maus Nissan,34652,28.21583,-82.739071
Pearson Nissan of Ocala,34471,29.171608,-82.161506
Pearson Nissan of Ocala,34471,29.171608,-82.161506
Marriott Grand Vista,32822,28.3984649,-81.4537093
Reed Motors,32808,28.551681,-81.424557
Reed Motors,32808,28.551681,-81.424557
Sutherlin Nissan - Orlando,32807,28.5684,-81.27715
Sutherlin Nissan - Orlando,32807,28.5684,-81.27715
Universal Nissan,32837,28.38053,-81.403658
Universal Nissan,32837,28.38053,-81.403658
Beck Nissan,32177,29.663189,-81.656096
Beck Nissan,32177,29.663189,-81.656096
John Lee Nissan,32405,30.188966,-85.656853
Sandy Sansing Nissan,32505,30.47414,-87.249675
Sandy Sansing Nissan,32505,30.47414,-87.249675
Performance Nissan,33062,26.21375,-80.10699
Performance Nissan,33062,26.21375,-80.10699
Naples Nissan,34109,26.211419,-81.744746
West Palm Beach Nissan,33404,26.782347,-80.09792
West Palm Beach Nissan,33404,26.782347,-80.09792
Southern 441 Nissan,33411,26.680654,-80.198008
Southern 441 Nissan,33411,26.680654,-80.198008
Nissan of Saint Augustine,32086,29.844721,-81.323289
Nissan of Saint Augustine,32086,29.844721,-81.323289
Crown Nissan,33714,27.818805,-82.678474
Crown Nissan,33714,27.818805,-82.678474
Gettel Nissan - Sarasota,34239,27.298292,-82.499125
Gettel Nissan - Sarasota,34239,27.298292,-82.499125
Kraft Nissan,32308,30.462438,-84.221215
Kraft Nissan,32308,30.462438,-84.221215
Pat Fischer Nissan,32780,28.602972,-80.808957
Pat Fischer Nissan,32780,28.602972,-80.808957
Nissan of Venice,34292,27.090886,-82.433092
Wesley Chapel Nissan,33544,28.23835,-82.344239
Wesley Chapel Nissan,33544,28.23835,-82.344239
Five Star Nissan - Albany,31705,31.57122,-84.125568
Five Star Nissan - Albany,31705,31.57122,-84.125568
Hilton Garden Inn - Marietta,30339,33.9064807,-84.4639319
Nissan of Augusta,30907,33.515068,-82.067573
Nissan of Augusta,30907,33.515068,-82.067573
Nissan of Athens,30606,33.940287,-83.49648
Nissan of Athens,30606,33.940287,-83.49648
Scott Evans Nissan,30117,33.587958,-85.053239
Scott Evans Nissan,30117,33.587958,-85.053239
Nissan Headquarters - Columbus,31904,32.539843,-84.965676
Nissan Headquarters - Columbus,31904,32.539843,-84.965676
Conyers Nissan,30094,33.66597615,-84.03435213
Conyers Nissan,30094,33.66597615,-84.03435213
Butler Nissan,31206,32.915302,-83.70634
Butler Nissan,31206,32.915302,-83.70634
Childre Nissan,31061,33.106139,-83.257757
Childre Nissan,31061,33.106139,-83.257757
Nissan of Albertville,35950,34.290864,-86.244855
Nissan of Albertville,35950,34.290864,-86.244855
Massey Automotive,36420,31.318556,-86.45545
Massey Automotive,36420,31.318556,-86.45545
Lynch Nissan - Auburn,36830,32.559745,-85.50088
Lynch Nissan - Auburn,36830,32.559745,-85.50088
Benton Nissan - Bessemer,35022,33.363169,-87.007652
Benton Nissan - Bessemer,35022,33.363169,-87.007652
Jim Burke Nissan,35203,33.512147,-86.816519
Jim Burke Nissan,35203,33.512147,-86.816519
Serra Nissan,35215,33.624698,-86.686454
Serra Nissan,35215,33.624698,-86.686454
McKinnon Nissan,35046,32.888783,-86.622664
McKinnon Nissan,35046,32.888783,-86.622664
Bondy's Nissan,36305,31.231097,-85.447945
Bondy's Nissan,36305,31.231097,-85.447945
Mitchell Nissan,36330,31.30476,-85.819992
Mitchell Nissan,36330,31.30476,-85.819992
University Nissan - Florence,35630,34.83473,-87.628871
University Nissan - Florence,35630,34.83473,-87.628871
Nissan of Gadsden,35901,33.981374,-86.007245
Nissan of Gadsden,35901,33.981374,-86.007245
Landers McLarty Nissan,35806,34.748967,-86.690944
Landers McLarty Nissan,35806,34.748967,-86.690944
Nissan of Mobile,36606,30.669173,-88.12657
Nissan of Mobile,36606,30.669173,-88.12657
Benton Nissan,36203,33.594279,-85.876568
Benton Nissan,36203,33.594279,-85.876568
Nissan of Burlingame,94010,37.57792,-122.341931
Nissan of Burlingame,94010,37.57792,-122.341931
San Francisco Airport - Marriott Waterfront,94010,37.6023496,-122.3706759
CITYOF CAMPBELL 2NDST GARAGE UL,95008,37.287593,-121.946908
Dublin Nissan,94568,37.702828,-121.911087
Dublin Nissan,94568,37.702828,-121.911087
Stone Brewing World Bistro & Gardens,92029,33.11587,-117.11955
Momentum Nissan,94533,38.244614,-122.079181
Momentum Nissan,94533,38.244614,-122.079181
Renaissance Indian Wells Resort & Spa,92210,33.72323,-116.324409
OMP Sanders Rubbercraft,90808,33.8234522,-118.1488717
Los Angeles County - Museum of Art,90036,34.063383,-118.35808
Empire Nissan,91761,34.049006,-117.547161
Empire Nissan,91761,34.049006,-117.547161
MT CLEMENS DDA MAIN ST PARK #1,48043,42.59811,-82.877464
Kaiser Honolulu Clinic,96814,21.301035,-157.846302
Kaiser Permanente - Moanalua Medical Center,96819,21.362292,-157.900139
Queen's Physician Office Building,96813,21.308447,-157.853161
Ace Hardware,96707,21.329863,-158.086621
Grand Hyatt Kauai,96756,21.876457,-159.44208
Lihue Civic Center - Piikoi Building - Public Access,96766,21.975084,-159.369044
Kapolei Judiciary,96707,21.326903,-158.085721
Paulson Electric,52404,41.947533,-91.6870579
Tri-City Electric,52806,41.5829247,-90.5713513
Dennis Dillon Nissan,83704,43.619031,-116.29091
Dennis Dillon Nissan,83704,43.619031,-116.29091
Ron Sayer Nissan,83401,43.506418,-112.000182
Ron Sayer Nissan,83401,43.506418,-112.000182
Arlington Nissan,60004,42.139843,-87.996655
Arlington Nissan,60004,42.139843,-87.996655
O'Brien Nissan,61704,40.459154,-88.966191
O'Brien Nissan,61704,40.459154,-88.966191
Hove Buick-Nissan,60915,41.154031,-87.851483
Monken Nissan - Centralia,62801,38.533452,-89.172979
Berman Nissan - Chicago,60641,41.953751,-87.739697
Berman Nissan - Chicago,60641,41.953751,-87.739697
Continental Nissan,60525,41.78586,-87.8685
Continental Nissan,60525,41.78586,-87.8685
Jim M'Lady Nissan,60014,42.226647,-88.306745
Jim M'Lady Nissan,60014,42.226647,-88.306745
Crown Nissan - Decatur,62526,39.876094,-88.959111
Crown Nissan - Decatur,62526,39.876094,-88.959111
Ken Nelson Auto Plaza,61021,41.856583,-89.489398
Bill Kay's Nissan - Downers Grove,60515,41.807887,-88.024848
Bill Kay's Nissan - Downers Grove,60515,41.807887,-88.024848
McGrath Nissan,60120,42.033769,-88.255193
McGrath Nissan,60120,42.033769,-88.255193
The Autobarn Nissan,60202,42.03616,-87.680149
The Autobarn Nissan,60202,42.03616,-87.680149
Galesburg Nissan,61401,40.973058,-90.383695
KANE COUNTY KANE COURTHOUSE,60134,41.886523,-88.309239
Glendale Nissan,60139,41.904021,-88.068043
Glendale Nissan,60139,41.904021,-88.068043
Gerald Nissan - North Aurora,60542,41.798401,-88.37177
Gerald Nissan - North Aurora,60542,41.798401,-88.37177
Auffenberg Nissan,62269,38.596106,-89.956489
Auffenberg Nissan,62269,38.596106,-89.956489
Nissan of St Charles,60174,41.920486,-88.284011
Nissan of St Charles,60174,41.920486,-88.284011
Tom Wood Collision Center,46280,39.929262,-86.099395
Purdue University - Armory,47907,40.4277617,-86.9162607
Purdue University - Grant Street Parking Garage,47906,40.4244203,-86.9103211
Purdue University - Northwestern Parking Garage,47907,40.4296753,-86.9120266
JOHNSON COUNTY YOUTH&FAMILY,66061,38.88768,-94.830627
Oakes Mitsubishi,66112,39.116404,-94.746998
Oakes Mitsubishi,66112,39.116404,-94.746998
Bob Allen Nissan,40422,37.657747,-84.784008
Don Franklin Nissan - Lexington,40509,37.997336,-84.441827
Legacy Nissan,40741,37.105179,-84.079467
University of Louisville - Belknap Parking Garage,40208,38.2158706,-85.7548686
Loyola University - New Orleans,70118,29.937545,-90.127308
Electric Insurance Co,1915,42.579607,-70.90188
State Street Financial Center Parking,2111,42.3529541,-71.0579565
Inn at Santa Fe,87507,35.61229,-106.0323
Cross Insurance,4605,44.434846,-68.369482
Lee Toyota,4086,43.937921,-69.963454
City of Rancho Cucamonga - Archibald Library,91730,34.120214,-117.593952
City of Rancho Cucamonga - City Hall,91730,34.10303,-117.576
City of Rancho Cucamonga - Animal Care & Adoption Center,91730,34.100456,-117.54918
City of Rancho Cucamonga - Red Hill Community Park,91730,34.11787,-117.611
City of Rancho Cucamonga - Heritage Community Park,91737,34.154033,-117.607446
Illinois Institute of Technology,60616,41.83545303,-87.62598419
One Atlantic Center,30309,33.787208,-84.387453
Advocate BroMenn Medical Center,61761,40.49813,-88.991628
Friendship Nissan,28043,35.334675,-81.892822
Friendship Nissan,28043,35.334675,-81.892822
Gastonia Nissan,28054,35.261109,-81.139708
Gastonia Nissan,28054,35.261109,-81.139708
Deacon Jones Nissan,27530,35.400146,-78.014743
Crown Nissan,27407,36.060613,-79.876505
Crown Nissan,27407,36.060613,-79.876505
Greenville Nissan,27834,35.571982,-77.408327
Greenville Nissan,27834,35.571982,-77.408327
City of Hendersonville - Dogwood Parking Lot,28792,35.316931,-82.461565
Hunter Nissan,28792,35.301937,-82.440374
Hunter Nissan,28792,35.301937,-82.440374
Modern Nissan - Hickory,28602,35.710136,-81.321182
Modern Nissan - Hickory,28602,35.710136,-81.321182
Vann Yorks High Point Nissan,27260,35.937981,-79.996012
Don Williamson Nissan,28546,34.761337,-77.381386
Don Williamson Nissan,28546,34.761337,-77.381386
Montreat College,28757,35.64569,-82.296916
Eastern Carolina Nissan,28560,35.048239,-77.014397
Eastern Carolina Nissan,28560,35.048239,-77.014397
Reidsville Nissan,27320,36.323241,-79.686657
Reidsville Nissan,27320,36.323241,-79.686657
Nissan of Roanoke Rapids,27870,36.42331,-77.635287
Griffin Nissan,28379,34.918104,-79.744733
Simmons Nissan,27030,36.480616,-80.616003
Simmons Nissan,27030,36.480616,-80.616003
Griffin Nissan,28379,34.918104,-79.744733
Ben Mynatt Nissan,28147,35.644549,-80.488272
Ben Mynatt Nissan,28147,35.644549,-80.488272
Classic Nissan - Sanford,27332,35.44411,-79.1282
Classic Nissan - Sanford,27332,35.44411,-79.1282
Pinehurst Nissan,28387,35.161067,-79.421191
Pinehurst Nissan,28387,35.161067,-79.421191
Classic Nissan - Statesville,28677,35.770417,-80.858363
Crossroads Nissan - Wake Forest,27587,35.948971,-78.539171
Crossroads Nissan - Wake Forest,27587,35.948971,-78.539171
Wilkes Nissan,28697,36.149969,-81.202184
Wilkes Nissan,28697,36.149969,-81.202184
Capital Nissan - Wilmington,28405,34.24769,-77.865815
Capital Nissan - Wilmington,28405,34.24769,-77.865815
Lee Nissan,27896,35.756003,-77.9753
Lee Nissan,27896,35.756003,-77.9753
Modern Nissan,27105,36.179741,-80.275364
Modern Nissan,27105,36.179741,-80.275364
Bob Moore Nissan - Norman,73072,35.266483,-97.487255
Bob Moore Nissan - Norman,73072,35.266483,-97.487255
Orr Nissan - West,73162,35.570933,-97.670511
Orr Nissan - West,73162,35.570933,-97.670511
Orr Nissan - Central,73149,35.39119,-97.509251
Orr Nissan - Central,73149,35.39119,-97.509251
Jackie Cooper Nissan,74133,36.021596,-95.887791
Jackie Cooper Nissan,74133,36.021596,-95.887791
West Hills Collision Center,97219,45.464636,-122.698892
Grainger Nissan - Anderson,29621,34.550557,-82.674669
Bob Richards Nissan,29842,33.48633,-81.931813
Bob Richards Nissan,29842,33.48633,-81.931813
Hudson Nissan,29407,32.788017,-80.017363
Hudson Nissan,29407,32.788017,-80.017363
Benson Nissan,29640,34.8261215,-82.5649691
Benson Nissan,29640,34.8261215,-82.5649691
Five Star Nissan - Florence,29501,34.187015,-79.812422
Crown Nissan - Greenville,29607,34.81781,-82.341027
Quality Nissan - Greenwood,29646,34.223185,-82.18908
Quality Nissan - Greenwood,29646,34.223185,-82.18908
Nissan of Greer,29651,34.94677,-82.210221
Nissan of Greer,29651,34.94677,-82.210221
Dick Smith Nissan,29072,33.997902,-81.222504
Grand Strand Nissan,29579,33.753917,-78.965658
Grand Strand Nissan,29579,33.753917,-78.965658
Hudson Nissan,29406,32.934522,-80.039343
Hudson Nissan,29406,32.934522,-80.039343
Orangeburg Nissan,29118,33.538342,-80.834906
Orangeburg Nissan,29118,33.538342,-80.834906
Coastal Nissan,29585,33.426264,-79.157814
Coastal Nissan,29585,33.426264,-79.157814
Rock Hill Nissan,29730,34.945197,-80.969333
Rock Hill Nissan,29730,34.945197,-80.969333
Benson Nissan,29303,34.971931,-81.936956
Benson Nissan,29303,34.971931,-81.936956
Nissan of Sumter,29150,33.956113,-80.385874
Nissan of Sumter,29150,33.956113,-80.385874
Bergstrom Victory Lane Imports,54913,44.291643,-88.471308
East Charlotte Nissan,28227,35.167774,-80.742259
East Charlotte Nissan,28227,35.167774,-80.742259
Scott Clark Nissan,28273,35.111292,-80.881867
Scott Clark Nissan,28273,35.111292,-80.881867
Haywood Community College,28721,35.525966,-82.927696
Modern Nissan - Concord,28027,35.392063,-80.622777
Modern Nissan - Lake Norman,28031,35.467117,-80.872205
Modern Nissan - Lake Norman,28031,35.467117,-80.872205
Durham County - Justice Center Parking Deck,27701,35.99289,-78.9014
Nissan of Elizabeth City,27909,36.339936,-76.244936
Nissan of Elizabeth City,27909,36.339936,-76.244936
Fred Anderson Nissan,28304,35.042419,-78.956747
Martin Nissan,60077,42.055712,-87.757895
Martin Nissan,60077,42.055712,-87.757895
Nissan of South Holland,60473,41.598505,-87.5824
Nissan of South Holland,60473,41.598505,-87.5824
Green Nissan,62711,39.757002,-89.740821
Green Nissan,62711,39.757002,-89.740821
Bob Rohrman Nissan,46304,41.604651,-87.110979
Bob Rohrman Nissan,46304,41.604651,-87.110979
Tom Naquin Nissan,46514,41.686313,-86.011996
Tom Naquin Nissan,46514,41.686313,-86.011996
D-Patrick Nissan,47715,37.977669,-87.499701
D-Patrick Nissan,47715,37.977669,-87.499701
Ed Martin Nissan - Fishers,46038,39.983623,-86.004756
Ed Martin Nissan - Fishers,46038,39.983623,-86.004756
Fort Wayne Nissan,46808,41.12267,-85.154261
Fort Wayne Nissan,46808,41.12267,-85.154261
Ed Martin Nissan,46219,39.779011,-86.046058
Ed Martin Nissan,46219,39.779011,-86.046058
Hubler Nissan,46227,39.644452,-86.131954
Nissan of Lafayette,47905,40.418149,-86.837951
Nissan of Lafayette,47905,40.418149,-86.837951
Southlake Nissan,46410,41.469628,-87.284303
Southlake Nissan,46410,41.469628,-87.284303
Gurley Leep Nissan,46545,41.707652,-86.186717
Gurley Leep Nissan,46545,41.707652,-86.186717
Napleton Nissan - Schererville,46375,41.497662,-87.470113
Napleton Nissan - Schererville,46375,41.497662,-87.470113
Sorg Nissan,46582,41.274967,-85.852782
Sorg Nissan,46582,41.274967,-85.852782
Briggs Nissan - Lawrence,66047,38.929774,-95.261724
Briggs Auto Group,66502,39.168346,-96.600023
Briggs Auto Group,66502,39.168346,-96.600023
Marshall Motor Co,67401,38.770827,-97.614166
Marshall Motor Co,67401,38.770827,-97.614166
Capital City Nissan - Topeka,66612,39.033021,-95.68261
Capital City Nissan - Topeka,66612,39.033021,-95.68261
Orr Nissan - Wichita,67207,37.679034,-97.217163
Orr Nissan - Wichita,67207,37.679034,-97.217163
Bill Cole Nissan,41101,38.472192,-82.626259
Hubler Nissan,46227,39.644452,-86.131954
Kerry Nissan,41042,39.003452,-84.654074
Kerry Nissan,41042,39.003452,-84.654074
Collins Nissan,40218,38.185647,-85.642223
Collins Nissan,40218,38.185647,-85.642223
Granite City Electric,2360,41.963875,-70.699124
Indian Head Naval Base,20640,38.597411,-77.178757
Asheboro Nissan,27203,35.70458,-79.781748
Asheboro Nissan,27203,35.70458,-79.781748
Anderson Nissan,28806,35.547866,-82.599474
Anderson Nissan,28806,35.547866,-82.599474
Black Mountain Public Safety Building,28711,35.619218,-82.320192
AutoStar Nissan - Boone,28607,36.222859,-81.63402
AutoStar Nissan - Boone,28607,36.222859,-81.63402
Leith Nissan,27511,35.7390019,-78.8138134
Leith Nissan,27511,35.7390019,-78.8138134
Washington Navy Yard,20003,38.874415,-76.992381
Woodfield Nissan,60169,42.050116,-88.097379
Woodfield Nissan,60169,42.050116,-88.097379
Thomas Nissan - Joilet,60435,41.548858,-88.12682
Thomas Nissan - Joilet,60435,41.548858,-88.12682
Liberty Nissan,60048,42.271355,-87.949478
Liberty Nissan,60048,42.271355,-87.949478
Anderson Nissan,61108,42.267854,-88.98865
Nissan of Marian,62959,37.74626,-88.985731
Hawkinson Nissan,60443,41.505031,-87.748285
Hawkinson Nissan,60443,41.505031,-87.748285
KC Summers Nissan,61938,39.459697,-88.376824
KC Summers Nissan,61938,39.459697,-88.376824
Al Piemonte Nissan,60160,41.907344,-87.854085
Al Piemonte Nissan,60160,41.907344,-87.854085
Courtesy Car City,61265,41.473755,-90.504579
Courtesy Car City,61265,41.473755,-90.504579
Gerald Nissan,60540,41.766972,-88.187306
Gerald Nissan,60540,41.766972,-88.187306
Star Nissan,60714,42.01155,-87.771151
Star Nissan,60714,42.01155,-87.771151
Kelly Nissan,60453,41.720728,-87.728594
Kelly Nissan,60453,41.720728,-87.728594
Orland Park Nissan,60462,41.602458,-87.827796
Orland Park Nissan,60462,41.602458,-87.827796
Uftring Nissan,61614,40.777601,-89.630469
JP Motors,61354,41.352942,-89.124734
JP Motors,61354,41.352942,-89.124734
Autocenters Nissan,62095,38.857818,-90.067243
Schneider Electric - Visitor Lot,52404,41.941296,-91.67738
Aiken Electric Co-op,29801,33.547058,-81.6535
1180 Peachtree Building,30309,33.787,-84.383549
DEVOS PLACE BASEMENT PARK#2,49504,42.96999,-85.673622
MT CLEMENS DDA EMERALD      #1,48043,42.598186,-82.879341
Orange County - Robert and Pearl Seymour Center,27516,35.950629,-79.063354
Orange County - Skills Development Center,27516,35.909907,-79.06344
Orange County - Durham Technical Community College Park & Ride Lot,27278,36.04236,-79.09323
Orange County - West Campus Office Building,27278,36.073889,-79.100586
DTCC TERRY BUILDING 400,19901,39.197334,-75.560005
OUC VCC UNIT 04,32811,28.518951,-81.465449
Notre Dame - Facilities Building,46556,41.707936,-86.23619
Notre Dame - Mail Distribution Center,46556,41.704758,-86.23823
Notre Dame - West Lake Hall,46556,41.700144,-86.24535
City of Columbus - City Hall,43215,39.963572,-83.0025
Utah Paper Box,84101,40.749027,-111.911084
Marshfield Utilities,54449,44.650858,-90.184847
City of Columbus - Goodale Park,43215,39.973748,-83.006367
Toyota of Santa Cruz,95010,36.981884,-121.962228
Yosemite Village Store,95389,37.74656,-119.584
Town of Nantucket - Town Hall Annex,2554,41.280829,-70.09553
Nantucket Airport,2554,41.258249,-70.063098
City of Dallas,75253,32.653718,-96.628439
City of Dallas,75203,32.74458,-96.781018
Nissan of Greenville,75402,33.104846,-96.102177
Bert Ogden Nissan,78501,26.20814,-98.202844
Tim Dahle Nissan,84107,40.672936,-111.889147
Tim Dahle Nissan,84107,40.672936,-111.889147
Tim Dahle Nissan,84054,40.858562,-111.902958
Tim Dahle Nissan,84054,40.858562,-111.902958
Hall Nissan,23321,36.864845,-76.41758
Hall Nissan,23321,36.864845,-76.41758
Nissan of Chesapeake,23320,36.753547,-76.248342
Nissan of Chesapeake,23320,36.753547,-76.248342
Loyalty Nissan,23831,37.304917,-77.392372
Loyalty Nissan,23831,37.304917,-77.392372
Robert Woodall Nissan,24540,36.595903,-79.397367
Robert Woodall Nissan,24540,36.595903,-79.397367
Lynchburg Nissan,24551,37.385661,-79.243911
Lynchburg Nissan,24551,37.385661,-79.243911
Pohanka Nissan of Fredericksburg,22408,38.255149,-77.496844
Pohanka Nissan of Fredericksburg,22408,38.255149,-77.496844
Harrisonburg Nissan,22801,38.422471,-78.838899
Harrisonburg Nissan,22801,38.422471,-78.838899
Hart Nissan,23111,37.613165,-77.335825
Hart Nissan,23111,37.613165,-77.335825
Priority Nissan - Newport News,23608,37.151806,-76.531052
Priority Nissan - Newport News,23608,37.151806,-76.531052
Nissan of Norfolk,23502,36.86564,-76.2106
Nissan of Norfolk,23502,36.86564,-76.2106
Nissan of Richmond,23233,37.650319,-77.609022
Nissan of Richmond,23233,37.650319,-77.609022
Gunter Nissan,24148,36.629501,-79.860071
Gunter Nissan,24148,36.629501,-79.860071
Leckner Nissan,22554,38.468791,-77.400162
Leckner Nissan,22554,38.468791,-77.400162
Valley Nissan of Staunton,24401,38.117862,-79.068162
Valley Nissan of Staunton,24401,38.117862,-79.068162
Hall Nissan - Virginia Beach,23452,36.838989,-76.102433
Hall Nissan - Virginia Beach,23452,36.838989,-76.102433
Cowles Nissan,22191,38.62956,-77.274272
Antioch Nissan,94509,38.007799,-121.832042
Nissan of Bakersfield,93313,35.310723,-119.035324
Buena Park Nissan,90621,33.865497,-117.995215
Carson Nissan,90745,33.824968,-118.245675
Palm Springs Nissan,92234,33.78414,-116.471
Cerritos Nissan,90703,33.861544,-118.100471
Chico Nissan,95926,39.756332,-121.843715
Puente Hills Nissan,91748,33.997621,-117.928216
Lithia Nissan - Clovis,93612,36.836818,-119.717629
Nissan of Serramonte,94014,37.671267,-122.463541
Autocom Nissan - Concord,94520,37.980192,-122.050128
Larry H Miller Nissan,92882,33.88309,-117.615292
Orange Coast Nissan,92626,33.675397,-117.918684
Hanlees Nissan,95618,38.55252,-121.691555
Downey Nissan,90241,33.9473,-118.151166
Nissan of Duarte,91010,34.136553,-117.975944
Mossy Nissan - El Cajon,92020,32.795896,-116.976156
Mossy Nissan - Escondido,92029,33.116492,-117.106837
McCrea Nissan,95501,40.800562,-124.164405
Tracy Nissan,95304,37.75990555,-121.4632052
Altamonte Mall,32701,28.666819,-81.377753
Firkins Nissan,34207,27.462023,-82.578036
Deland Nissan,32720,28.983689,-81.300079
Delray Nissan,33483,26.435016,-80.072333
Fort Lauderdale Nissan,33316,26.109825,-80.137099
City of Gulfport - Casino,33707,27.737752,-82.707812
Maus Nissan,34448,28.848733,-82.57947
Fuccillo Nissan,32244,30.212415,-81.736209
Westside Nissan,32210,30.288306,-81.730832
Rountree-Moore Nissan,32055,30.18082,-82.702224
City of Lake Mary - Trailhead Park,32746,28.75658,-81.3459
Bill Seidle's Nissan,33172,25.783121,-80.366772
Palmetto 57 Nissan,33055,25.9262,-80.292105
AutoNation Nissan - Miami,33135,25.76506,-80.250516
Rosen Medical Plaza,32819,28.450933,-81.473436
AutoNation Nissan - Kendall,33157,25.609391,-80.348241
AutoNation Nissan - Pembroke Pines,33024,26.007358,-80.263072
St. Pete Beach - City Hall,33706,27.744,-82.7475
Alan Jay Nissan,33870,27.485756,-81.481603
Wallace Nissan,34997,27.152729,-80.217708
AutoNation Nissan - Brandon,33619,27.947161,-82.340532
Courtesy Nissan - Tampa,33614,27.995139,-82.506186
Ferman Nissan - North Tampa,33612,28.049764,-82.458596
Sutherlin Nissan,32962,27.585356,-80.376442
Hill Nissan,33884,27.982961,-81.676059
Antwerpen Nissan,21207,39.312935,-76.734569
Antwerpen Nissan,21207,39.312935,-76.734569
Bob Bell Nissan,21224,39.296284,-76.509019
Bob Bell Nissan,21224,39.296284,-76.509019
Nissan of Bowie,20716,38.919138,-76.718428
Nissan of Bowie,20716,38.919138,-76.718428
Antwerpen Nissan,21029,39.21254,-76.944457
Antwerpen Nissan,21029,39.21254,-76.944457
Darcars Nissan - College Park,20740,39.008053,-76.929772
Darcars Nissan - College Park,20740,39.008053,-76.929772
Leckner Nissan - Ellicott City,21043,39.282746,-76.808584
Leckner Nissan - Ellicott City,21043,39.282746,-76.808584
Sheehy Nissan,21061,39.172584,-76.619758
Sheehy Nissan,21061,39.172584,-76.619758
Hamilton Nissan,21740,39.605636,-77.687979
Hamilton Nissan,21740,39.605636,-77.687979
Ourisman Nissan,20724,39.10165651,-76.82296929
Ourisman Nissan,20724,39.10165651,-76.82296929
Antwerpen Nissan,21117,39.438482,-76.802793
Antwerpen Nissan,21117,39.438482,-76.802793
Pohanka Nissan - Salisbury,21801,38.392257,-75.575718
Nationwide Nissan,21093,39.440675,-76.625866
Nationwide Nissan,21093,39.440675,-76.625866
Sheehy Nissan - Waldorf,20601,38.630057,-76.9056
Eden Prairie Nissan,55344,44.857006,-93.343806
Eden Prairie Nissan,55344,44.857006,-93.343806
Kline Nissan,55109,45.019455,-93.050669
Kline Nissan,55109,45.019455,-93.050669
Umstead Hotel and Spa,27513,35.82973,-78.7646
Mayfair Town Center,28405,34.242673,-77.83313
Baron Nissan,11548,40.816267,-73.625869
Baron Nissan,11548,40.816267,-73.625869
Rothrock Motor Sales,18104,40.620508,-75.503287
Rothrock Motor Sales,18104,40.620508,-75.503287
Courtesy Motor Sales,16602,40.487078,-78.401324
Courtesy Motor Sales,16602,40.487078,-78.401324
Ardmore Nissan,19003,40.002954,-75.280533
Ardmore Nissan,19003,40.002954,-75.280533
Beaver County Nissan,15010,40.780079,-80.390267
Beaver County Nissan,15010,40.780079,-80.390267
Fitzgerald Nissan,17201,39.925539,-77.620844
Fitzgerald Nissan,17201,39.925539,-77.620844
Conicelli Nissan,19428,40.102996,-75.308253
Conicelli Nissan,19428,40.102996,-75.308253
Nissan of Devon,19333,40.046627,-75.433254
Nissan of Devon,19333,40.046627,-75.433254
Fred Beans Nissan - Doylestown,18902,40.334144,-75.13824
Fred Beans Nissan - Doylestown,18902,40.334144,-75.13824
Lancaster Nissan,17520,40.090978,-76.347247
Lancaster Nissan,17520,40.090978,-76.347247
Interstate Nissan,16509,42.030304,-80.062158
Interstate Nissan,16509,42.030304,-80.062158
Exton Nissan,19341,40.026519,-75.633967
Exton Nissan,19341,40.026519,-75.633967
Peruzzi Nissan,19030,40.182893,-74.86217
Peruzzi Nissan,19030,40.182893,-74.86217
Colonial Nissan,19053,40.138619,-75.006859
Star Nissan,15601,40.302578,-79.503192
Star Nissan,15601,40.302578,-79.503192
Faulkner Nissan,17111,40.252987,-76.820183
Faulkner Nissan,17111,40.252987,-76.820183
Montrose Nissan,16148,41.252329,-80.451653
Mark Arbuckle Nissan,15701,40.622852,-79.160508
Faulkner Nissan,19046,40.1076293,-75.12416154
Faulkner Nissan,19046,40.1076293,-75.12416154
Maguire's Nissan - Lebanon,17042,40.338996,-76.447073
Maguire's Nissan - Lebanon,17042,40.338996,-76.447073
Nissan 42 - Limerick,19468,40.217505,-75.548137
Nissan 42 - Limerick,19468,40.217505,-75.548137
Montgomeryville Nissan,18936,40.225361,-75.232603
Montgomeryville Nissan,18936,40.225361,-75.232603
Alexander Nissan,17756,41.247703,-76.833589
Alexander Nissan,17756,41.247703,-76.833589
#1 Cochran Nissan,15235,40.431599,-79.814633
#1 Cochran Nissan,15235,40.431599,-79.814633
Bowser Nissan,15236,40.319868,-79.941664
Bowser Nissan,15236,40.319868,-79.941664
Nissan of State College,16801,40.758961,-77.876218
O'Neil Nissan,18974,40.210564,-75.105638
O'Neil Nissan,18974,40.210564,-75.105638
John Sisson Motors,15301,40.189348,-80.213311
John Sisson Motors,15301,40.189348,-80.213311
Moyer Nissan,19565,40.33236522,-76.09201986
Moyer Nissan,19565,40.33236522,-76.09201986
Wright Automotive Group,15090,40.610785,-80.053089
Wright Automotive Group,15090,40.610785,-80.053089
Ken Pollock Nissan,18702,41.242652,-75.847205
Ken Pollock Nissan,18702,41.242652,-75.847205
Apple Nissan,17402,39.981691,-76.699213
Kenny Ross Nissan,16063,40.747335,-80.114043
Kenny Ross Nissan,16063,40.747335,-80.114043
Wickford Junction Commuter Rail Station,2852,41.582116,-71.49459
Billion Nissan,57107,43.543947,-96.777236
Billion Nissan,57107,43.543947,-96.777236
Twin City Nissan,37701,35.830725,-83.974822
Wolfchase Nissan,38133,35.205818,-89.791337
Bill Gatton Nissan,37620,36.54282,-82.2354
Mountain View Nissan,37408,35.030251,-85.308376
Harold Mathews Nissan,37043,36.513006,-87.268667
Cookeville Nissan,38501,36.137109,-85.496453
Victory Nissan West,37055,36.023934,-87.340223
Nissan of Cool Springs,37067,35.957857,-86.80853
Newton Nissan of Gallatin,37066,36.361376,-86.494932
Carlock Nissan - Jackson,38305,35.668125,-88.84297
Tri-Cities Nissan,37601,36.374198,-82.372119
Wallace Nissan Oldsmobile,37660,36.551978,-82.487762
Ted Russell Nissan,37919,35.920587,-84.067881
Rusty Wallace Nissan,37912,35.999617,-83.969451
Nissan of Rivergate,37115,36.29062,-86.7051
Roberts Nissan,37355,35.454702,-86.041805
AutoNation Nissan - Memphis,38125,35.0353,-89.795859
Jim Keras Nissan,38128,35.181031,-89.895533
East Tennessee Nissan,37814,36.18226,-83.382387
Nissan of Murfreesboro,37129,35.854156,-86.394979
Action Nissan,37211,36.110606,-86.743585
Downtown Nashville Nissan,37228,36.191053,-86.793132
Oak Ridge Nissan,37830,36.010279,-84.268049
Jones Motor Co,38372,35.226101,-88.224729
Keating Nissan,77301,30.303153,-95.466768
Keating Nissan,77301,30.303153,-95.466768
Cowles Nissan,22191,38.62956,-77.274272
Blue Ridge Nissan,24382,36.949705,-81.066941
Blue Ridge Nissan,24382,36.949705,-81.066941
PeaceHealth,98684,45.63017,-122.504
Eau Claire Nissan,54701,44.786055,-91.461683
Eau Claire Nissan,54701,44.786055,-91.461683
John Amato Nissan,53217,43.111951,-87.916343
Gandrud Nissan,54302,44.482051,-87.965722
Gandrud Nissan,54302,44.482051,-87.965722
Gordie Boucher Nissan,53228,42.968589,-88.048579
Gordie Boucher Nissan,53228,42.968589,-88.048579
Pischke Motors Nissan,54601,43.808128,-91.252894
Pischke Motors Nissan,54601,43.808128,-91.252894
Rosen Nissan,53221,42.943999,-87.949983
Rosen Nissan,53221,42.943999,-87.949983
Bergstrom Nissan,54904,43.978636,-88.584394
Bergstrom Nissan,54904,43.978636,-88.584394
Russ Darrow Nissan - Sheboygan,53081,43.69316,-87.758052
Russ Darrow Nissan - Sheboygan,53081,43.69316,-87.758052
Boucher Nissan - Waukesha,53186,43.024144,-88.207716
Boucher Nissan - Waukesha,53186,43.024144,-88.207716
Kocourek Wausau Imports,54401,44.997088,-89.6622
Santa Clara Valley Water District,95118,37.24761,-121.8745
Evergy - Topeka General Office,66612,39.048,-95.674347
Evergy - Topeka Operations Center,66618,39.076033,-95.723478
Evergy - Professional Development Center,66608,39.088891,-95.645101
Evergy - Wichita General Office,67202,37.686731,-97.334925
Evergy - Wichita Service Building,67214,37.695062,-97.313754
Evergy - Lawrence Service Center,66046,38.935654,-95.226631
Evergy - Emporia District Office,66801,38.40049,-96.177263
Evergy - Manhattan Service Center,66502,39.192486,-96.612271
Evergy - Independence Service Center,67301,37.223118,-95.683942
Evergy - Shawnee Service Center,66227,38.97130639,-94.85996454
Evergy - El Dorado Service Center,67042,37.825334,-96.852057
Evergy - Newton Service Center,67114,38.043338,-97.349011
Evergy - Hutchinson Electric Service Center,67501,38.063975,-97.884172
Evergy - Arkansas City Service Center,67005,37.096241,-97.040242
Evergy - Wolf Creek - Dwight D Eisenhower Learning Center,66839,38.23899,-95.6886
Evergy - Gordon Evans Energy Center,67030,37.790387,-97.522657
Florida Power & Light - Stuart Service Center,34990,27.167492,-80.313691
Florida Power & Light - Central Broward Area Office,33317,26.124731,-80.243828
Florida Power & Light - Tallahassee Office,32301,30.440215,-84.280091
FSU GARAGE 6 UNIT 2,32304,30.437908,-84.299634
MTA LTR MT WASHNGTN,21209,39.368244,-76.652339
Fields Auto Group,28806,35.562735,-82.63133
Cherokee Welcome Center,28719,35.483554,-83.31624
Boyd Automotive,28792,35.294913,-82.432913
HILLS COUNTY KEEL LIBRARY,33618,28.086753,-82.492624
Florida Power & Light - Titusville Service Center,32781,28.610973,-80.814033
Florida Power & Light - Palm Beach International Airport,33406,26.679207,-80.094615
Nissan of Tustin,92782,33.72484,-117.799302
