Station Name,ZIP,Latitude,Longitude,ID
LADWP - Truesdale Center,91352,34.24831915,-118.3879714,1517
LADWP - West LA District Office,90024,34.052542,-118.448504,1519
Los Angeles Convention Center,90015,34.040539,-118.271387,1523
LADWP - John Ferraro Building,90012,34.059133,-118.248589,1525
LADWP - Haynes Power Plant,90803,33.759802,-118.096665,1531
State Capitol Parking Garage,95814,38.576769,-121.495022,1533
LADWP - Harbor Generating Station,90744,33.770508,-118.265628,1552
LADWP - Sylmar West,91342,34.30309,-118.480505,1556
LADWP - EV Service Center,90012,34.066801,-118.227605,1572
LADWP - Fairfax Center,90016,34.036777,-118.368841,1573
California Air Resources Board,91731,34.06872,-118.064,1583
LADWP - Palmetto Center,90013,34.039736,-118.236065,1589
Scripps Green Hospital,92037,32.89947,-117.243,6355
Galpin Motors,91343,34.221665,-118.468371,6405
Galleria at Tyler,92503,33.909914,-117.459053,6425
City of Pasadena - Holly Street Garage,91103,34.14762,-118.147111,6505
City of Pasadena - De Lacey Garage,91105,34.145138,-118.152655,6506
City of Pasadena - Schoolhouse Garage,91105,34.145119,-118.150133,6507
Pasadena Hilton,91101,34.142973,-118.140553,6508
Bristol Farms,91030,34.118433,-118.149597,6509
Hyatt Regency Long Beach,90802,33.7637,-118.192,7172
Los Angeles International Airport (LAX) - Lot 6,90045,33.94325,-118.403342,7184
Northridge Fashion Center - Yard House,91324,34.241116,-118.556708,7192
Ontario Airport Hotel and Conference Center,91764,34.07122,-117.575,7194
Courtyard Marriott - Oxnard Ventura,93030,34.228315,-119.170865,7195
Hilton - Palm Springs,92262,33.824004,-116.543589,7196
East Bay Mini,94588,37.700187,-121.876172,7197
Inland Empire Foods,92509,34.0189,-117.38,7206
Sacramento International Airport - Daily A Lot,95837,38.69005,-121.58889,7212
City of Santa Monica - Airport,90405,34.017081,-118.44704,7229
City of Santa Monica - Pier,90405,34.010021,-118.49583,7230
Westfield Fashion Square,91423,34.156839,-118.434454,7233
Universal City Hilton,91608,34.138717,-118.35904,7242
Van Nuys Amtrak/Metrolink Station,91405,34.21108,-118.448704,7245
Office Max - Home Depot,90241,33.94756,-118.153806,7250
Hyatt at Fisherman's Wharf,94133,37.80619,-122.4152,7280
Arden Fair Mall,95815,38.599693,-121.427045,7286
Japan Center Garage,94115,37.784912,-122.430237,21351
Palace Hotel,94105,37.78881,-122.401,21358
Mark Hopkins InterContinental Hotel,94108,37.791791,-122.411265,21360
Hotel Sofitel,90048,34.076264,-118.377527,21368
Music Center Parking - Level 2,90012,34.057657,-118.24789,21374
Balboa Golf Course,91436,34.169242,-118.497212,21383
California State University - Northridge,91330,34.248959,-118.523887,21395
California State University - Northridge,91330,34.241687,-118.528543,21396
California State University - Northridge,91330,34.236853,-118.532588,21397
Northridge Metrolink Station,91324,34.229277,-118.544827,21398
Los Angeles Harbor Department Headquarters,90731,33.740758,-118.28192,21402
Sylmar Metrolink Station,91342,34.2924134,-118.4497914,21414
Getty Center,90049,34.077588,-118.474585,21419
Los Angeles County - Arboretum,91007,34.145528,-118.050548,21450
City of Glendora - City Hall,91741,34.13556,-117.864,21498
DoubleTree Hotel - Los Angeles - Westside,90230,33.9826,-118.3966,21524
Helms Bakery Building,90034,34.029971,-118.385231,21525
Westfield MainPlace Mall,92705,33.777054,-117.870566,21535
California State University - Channel Islands,93012,34.16657602,-119.0458547,21559
Brea Downtown Parking,92821,33.919899,-117.898618,21561
Home Depot,91320,34.192178,-118.934793,21565
Lake Casitas Municipal Water District - Recreational Area,93022,34.418322,-119.3368,21566
San Dimas Park & Ride,91773,34.105275,-117.809208,21569
City of Pasadena - El Molino Lot,91101,34.147709,-118.136621,21594
Ventura County Government Center,93009,34.267352,-119.2124,21606
Ventura County Air Pollution Control District,93003,34.268756,-119.2154,21607
Pacific View Mall,93003,34.268,-119.2492,21608
LADWP - Scattergood Generating Facility,90293,33.917593,-118.425334,21609
Los Angeles Department of Public Works - Baldwin Park Construction Permit Office,91706,34.089085,-117.95463,21612
Los Angeles Department of Public Works - Hollydale Construction Permit Office,90242,33.92364288,-118.1678308,21615
Los Angeles Department of Public Works - Imperial Maintenance Yard,90280,33.930663,-118.175758,21618
University of California - Davis Extension - Lot 80,95616,38.539336,-121.732405,21673
San Luis Obispo County Air Pollution Control District,93401,35.25939,-120.64492,21713
Soquel & Front Garage,95061,36.973393,-122.024849,21794
LADWP - Wilmington District Yard,90744,33.773005,-118.265821,25171
Fair Oaks - Orangevale - Community Library,95628,38.66292,-121.2634,25491
Sutter Galleria Mall - University of California - Davis Extension,95816,38.57277,-121.467902,25494
North Highlands Library,95843,38.7042,-121.365,25497
Gateway Oaks Metro Center,95833,38.615468,-121.517263,25500
University of California - Davis - Medical Center,95817,38.552483,-121.4487,25501
City of Sacramento - Belle Cooledge Library,95822,38.524403,-121.5112,25502
Mosquito Road Park and Ride,95667,38.73323,-120.78962,25507
City of Vacaville - Cultural Center,95687,38.356027,-121.9628,25511
Stars Recreation Center,95688,38.36557,-121.967,25514
City of Vacaville - Regional Transport Center,95688,38.35172,-121.987,25515
Office of Housing & Redevelopment,95688,38.356907,-122.001886,25516
KUIC Radio - Parking Lot,95688,38.355867,-121.9862,25517
City of Vacaville - City Hall,95688,38.351758,-121.994475,25518
Citrus Heights City Hall,95621,38.682605,-121.297614,25519
Pitt School Plaza,95620,38.457369,-121.842567,25520
El Dorado County Government Center,95667,38.72799,-120.828,25522
El Dorado Transit Park & Ride,95762,38.6476,-121.067,25523
Elk Grove Kia,95758,38.40553,-121.391,25525
CVS Pharmacy,95746,38.74453,-121.17,25527
Carmichael Library,95608,38.618066,-121.334337,25610
Burlington International Airport,5403,44.469281,-73.154972,27036
Rio Vista City Hall,94571,38.15485,-121.69,27302
Fairfield City Hall,94533,38.25281,-122.044229,27328
Solano Community College,94534,38.23723,-122.123,27329
Vallejo Ferry Terminal,94590,38.105062,-122.265895,27335
Los Angeles International Airport (LAX) - Lot 1,90045,33.944761,-118.399767,28007
City of Vacaville - Police Headquarters,95688,38.35109,-121.993654,29862
Southern California Edison - Sacramento Office,95831,38.578568,-121.491058,32850
Burlington International Airport,5403,44.469281,-73.154972,32973
LADWP - Boylston,90026,34.059047,-118.256812,33177
LADWP - Central District,90015,34.033898,-118.256673,33178
LADWP - Lincoln Heights District,90031,34.081998,-118.21713,33179
LADWP - Receiving Station C,90744,33.799476,-118.257977,33180
LADWP - Valley Center Admin Lot,91405,34.208708,-118.444358,33182
LADWP - Valley Generating Station,91352,34.241928,-118.390147,33183
City of Lacey - City Hall Parking,98503,47.044011,-122.822404,33351
Oregon Museum of Science and Industry (OMSI) - South Parking Lot,97214,45.508396,-122.664667,33378
City of Ukiah - Public Parking Lot,95482,39.15,-123.2091,33544
Nut Tree Village,95688,38.368755,-121.961192,33545
Placer County Community Development Resource Center,95603,38.9412492,-121.1054805,33550
4th and G Plaza Public Parking Garage,95616,38.54643,-121.7388,33555
Davis Amtrak Station,95616,38.5443,-121.738,33556
University of California - Davis - Quad Parking Structure,95616,38.544538,-121.749713,33557
University Covenant Church,95618,38.55755,-121.6947,33558
Wildhorse Golf Club,95618,38.569412,-121.721373,33559
Lakewood Center Mall,90712,33.84788,-118.13889,33564
Golden Gate Ferry Terminal,94939,37.94495,-122.5096,33690
Oakland International Airport - Daily Lot,94621,37.7136,-122.2087,33695
Seattle-Tacoma International Airport - General Parking,98188,47.443377,-122.296229,33717
City of Champaign - Hill Street Parking Deck,61820,40.119161,-88.244185,33921
Discovery Center of Idaho,83702,43.608009,-116.197968,34106
Travis Park United Methodist Church,78205,29.427254,-98.490136,34829
City of Keizer - City Hall,97303,44.99574,-123.019758,34849
Nike - LA Garage,97006,45.508795,-122.8249,34859
Fairfield Transportation Center,94533,38.2482,-122.0678,35146
San Francisco City Hall,94102,37.77913,-122.418,35149
METRO NASHVILLE FULTON GARAGE 1,37210,36.153492,-86.76732,35165
LINCOLN CITY TAFT DUAL 1,97367,44.928439,-124.015824,35258
New York Institute of Technology - Old Westbury Solar Carport Station,11568,40.814019,-73.608978,35272
OUC RELIABLE 01,32801,28.535975,-81.379663,35284
PUBLIC STATIONS WILLY ST E,53703,43.083979,-89.363091,35290
Haggen Food & Pharmacy,98502,47.035421,-122.938962,35337
LBCC  LBCC DUAL 2,97321,44.586123,-123.115389,35480
Oregon Electric Group,97214,45.510465,-122.663354,35557
Home Depot,93405,35.249929,-120.689683,35560
San Luis Obispo Promenade - Bed Bath & Beyond,93401,35.25982,-120.676,35561
New York State Energy Research Development Authority - Headquarters,12203,42.702424,-73.857693,35562
Saratoga Technology & Energy Park,12020,42.969823,-73.773021,35563
Central Hudson Gas & Electric,12601,41.688323,-73.93433,35564
Avista Corp,99252,47.673347,-117.388933,35620
Steam Plant Grill,99201,47.654998,-117.425025,35621
Kum & Go #4110,50317,41.615759,-93.57875,35840
Kum & Go #570,50131,41.682385,-93.698315,35841
Kwik Trip #465,55433,45.138245,-93.274379,35943
City of Little Rock,72201,34.74555969,-92.28119659,36342
TUCSON RENTAL OFF NETWORK 1,85748,32.236156,-110.781792,36343
Whole Foods Market,6820,41.072919,-73.476189,36355
ARUNDEL MILLS  ELEMENT HOTELS,21076,39.155907,-76.717216,36363
Element Hotels - Ewing,8628,40.286518,-74.807516,36368
Lane Community College,97405,44.009797,-123.033213,36371
BROOKFIELD PROP 300 CLAY STAT1,77002,29.756604,-95.372854,36378
Hudson Valley Community College - TEC-SMART Building,12020,42.97167,-73.774182,36532
Goleta Mechanics Bank,93117,34.44198,-119.829553,36610
INTERPARK ADAMS WABASH 2,60603,41.879444,-87.626366,36611
INTERPARK WILLIS TOWER 1,60606,41.879081,-87.634561,36613
INTERPARK WASH FRANK NEW,60606,41.883404,-87.635081,36614
INTERPARK LAKE & WELLS 2,60606,41.885223,-87.633751,36617
INTERPARK 50 EAST OHIO 2,60611,41.892757,-87.626038,36619
City of Spartanburg - Municipal Parking Garage,29306,34.950136,-81.93279,36709
City of Spartanburg - Municipal Parking Garage,29306,34.951926,-81.931714,36710
City of Union Town Hall,29379,34.715982,-81.624616,36711
Whole Foods Market,6824,41.157925,-73.240315,36923
Propark America - Omni Hotel Chapel Square Garage,6510,41.305794,-72.927405,36924
City of New Haven - Air Rights Garage,6511,41.305265,-72.934141,36925
City of New Haven - Temple Street Garage,6510,41.304245,-72.928369,36926
Propark - Water Street Garage,6320,41.355486,-72.093784,36928
Town of Westport - Westport Metro North,6880,41.119291,-73.369266,36931
Park 'N Fly - Bradley International Airport,6078,41.951328,-72.663078,36932
OLD TOWN DECK  GROUND LEVEL,49684,44.760253,-85.62237,36941
GATEWAYKENOSHA  HORIZON MAINLOT,53144,42.592469,-87.915847,36949
PUBLIC STATIONS GREENWAY STAT,53562,43.091229,-89.52884,36951
Spinx #149,29206,34.042116,-80.939041,37056
Baker Electric Building,44103,41.503373,-81.639054,37097
McDonald's,25703,38.417603,-82.456866,37104
OUC OC BARNETT 1,32808,28.560572,-81.441748,37150
OUC OC MARKS ST 01,32803,28.556879,-81.377632,37151
OUC OUC OCCC 03,32819,28.429015,-81.458938,37154
OUC OC W LIBRARY 01,32811,28.528024,-81.44774,37161
OUC OC MED EXAM 01,32806,28.512494,-81.351919,37162
INTERPARK SOUTH LOOP 1,60604,41.877419,-87.630013,37164
French Gerleman,63146,38.694036,-90.4218,37166
HILLSBORO OR MAIN ST 1,97123,45.522609,-122.988535,37170
HILLSBORO OR EV-8,97123,45.520533,-122.978089,37171
BELLEVUE BELLEVUE CH 1,98004,47.614744,-122.193162,37181
Oregon Museum of Science and Industry (OMSI) - North Parking Lot,97214,45.509326,-122.666392,37651
Liberty Park,84119,40.74686,-111.876,37655
Salt Lake City Main Library,84111,40.759561,-111.883924,37658
The Evergreen State College,98505,47.071917,-122.976675,37673
The Hartford Financial Services Group - Lot 4,6105,41.770428,-72.687141,37679
The Hartford Financial Services Group,6095,41.879631,-72.729919,37681
JCCC MTC,66210,38.92591,-94.72819,37683
SCHOOLCRAFT EDU LIBRARY 02,48152,42.419224,-83.431343,37693
Courtyard Marriott - Hadley Amherst,1035,42.36262,-72.5395,37813
City of Delray Beach - Banker's Row Parking Lot,33444,26.465314,-80.07219,37835
KING COUNTY DOT ISSAQUAH P&R 2,98027,47.545324,-122.0195,38082
King County - King County Van Distribution Center,98052,47.675897,-122.091237,38083
Eversource,6106,41.765253,-72.671569,38096
SEAPORT GARAGE EAST GARAGE2 P1,2210,42.349249,-71.041557,38254
City of Columbia - Cannon Garage,29201,34.00741493,-81.0348006,38298
City of Columbia - Washington Street Garage,29201,34.003323,-81.035693,38299
City of Columbia - Arsenal Hill Garage,29201,34.008409,-81.041802,38300
City of Columbia - Lincoln Street Garage,29201,34.002255,-81.040219,38301
Greenville Zoo,29601,34.84709,-82.387269,38302
City of Greenville - Poinsett Garage,29601,34.849724,-82.400667,38303
City of Greenville - Spring Street Garage,29601,34.849889,-82.397797,38304
City of Greenville - Church Street Garage,29601,34.852754,-82.393113,38305
City of Columbia - Park Street Garage,29201,33.997786,-81.036161,38306
City of Greenville - Commons Garage,29601,34.852789,-82.396195,38307
City of Greenville - Liberty Square Garage,29601,34.85335,-82.394826,38308
City of Greenville - Richardson Garage,29601,34.852437,-82.399901,38309
City of Rock Hill - Municipal Garage,29730,34.925782,-81.028444,38310
Timken Sports Complex,29379,34.716556,-81.648482,38312
Lockhart Power,29364,34.77993955,-81.45735907,38313
Toyota of Santa Monica,90401,34.019875,-118.49151,38379
Parc 55 Hotel,94102,37.784871,-122.408991,38517
Beach & Hyde Garage,94109,37.806798,-122.419488,38518
City of Santa Monica - Civic Parking Garage,90401,34.010528,-118.4898,38521
Denver International Airport - Canopy Airport Parking,80022,39.843886,-104.771138,38522
Town of Superior - Town Hall,80027,39.953798,-105.166116,38523
Charles Hotel - Harvard Square,2138,42.372442,-71.122882,38525
Town of Dyer - Town Hall,46311,41.492057,-87.522819,38774
Peaches Bed & Breakfast,49503,42.962078,-85.659019,38778
GREEN MANGO GREEN MANGO 1,32218,30.485141,-81.662098,38799
ComEd,60618,41.94629288,-87.69982,38850
ComEd,60652,41.75497055,-87.71321,38851
City Hall Annex - Town of Normal,61761,40.507796,-88.982897,38855
College Avenue Parking Deck,61761,40.511172,-88.984985,38856
State of Illinois - Governor's Mansion,62703,39.79628,-89.6504,38857
Duke Energy,46168,39.70909,-86.3894,38859
MCDONALD SWLA CHARGE AT MCD 1,70601,30.198704,-93.212318,38861
ECM WEBER ELEC 1ST NATIONAL #1,55101,44.946632,-93.091461,38886
3M,55117,44.95121,-92.9952,38887
UWB CASCADIA CC NORTH DUAL 1,98011,47.761878,-122.191915,38952
CITY OF REDMOND CITY HALL DUAL,98052,47.679224,-122.12995,38959
CITY OF REDMOND MOC #1 PUBLIC,98052,47.672359,-122.099034,38966
WILLOWS LODGE WILLOWS #2,98072,47.734211,-122.147041,38976
PUBLIC STATIONS PINNACLE HEALTH,53719,43.011411,-89.459112,38978
PUBLIC STATIONS WILLY ST W,53562,43.096636,-89.500008,39006
City of Raleigh - Municipal Building,27601,35.778416,-78.64347,39016
City of Raleigh - Downtown,27601,35.77435,-78.642287,39017
Missouri University of Science and Technology - E3 Commons,65401,37.958953,-91.779289,39096
Clay Cooley Nissan,78745,30.206145,-97.759109,39114
Eversource Energy Park,3101,42.999265,-71.467911,39294
Super 8 - Ukiah,95482,39.1458,-123.198497,39314
KEMET Corp,29681,34.749177,-82.279741,39414
Hotel Floyd,24091,36.910575,-80.31736,39514
Virginia Commonwealth University (VCU) - West Broad Street Parking Deck,23284,37.551409,-77.45233,39574
Virginia Commonwealth University (VCU) - N-Deck Parking Deck,23298,37.543387,-77.42953,39575
Kwik Trip #330,56011,44.62302,-93.756478,39602
Kwik Trip #481,55066,44.567726,-92.624863,39603
Kwik Trip #492,55317,44.842694,-93.53986,39604
Kwik Trip #615,56003,44.17948,-94.036719,39605
Kwik Trip #466,56082,44.314819,-93.963999,39606
Kwik Trip #812,55304,45.218899,-93.310669,39607
Oak Ridge Nissan,37830,36.010279,-84.268049,39705
Newton Nissan South,37160,35.558371,-86.448276,39707
McGavock Nissan - Abilene,79606,32.408909,-99.771463,39708
McGavock Nissan - Amarillo,79119,35.159354,-101.938937,39709
Don Davis Nissan,76018,32.676458,-97.087169,39710
Town North Nissan,78758,30.374542,-97.731445,39711
Baytown Nissan,77521,29.807253,-94.97383365,39712
Mike Smith Nissan,77701,30.062535,-94.133511,39713
Grubbs Nissan,76022,32.839339,-97.160994,39714
Douglass Nissan,77845,30.639201,-96.30671,39715
Ed Hicks Nissan,78415,27.73082,-97.416019,39717
Clay Cooley Nissan,75237,32.646784,-96.863492,39718
Classic Nissan,75020,33.775328,-96.58308,39719
Casa Nissan,79925,31.783928,-106.417267,39720
Viva Nissan,79936,31.724024,-106.302211,39721
Nissan of Fort Worth,76116,32.721585,-97.478539,39723
Texas Nissan of Grapevine,76051,32.928183,-97.09448,39724
Charlie Clark Nissan,78552,26.186259,-97.734663,39725
Baker Nissan North,77065,29.913418,-95.611942,39726
Central Houston Nissan,77054,29.676558,-95.422537,39727
McDavid Nissan,77034,29.625565,-95.22531,39728
Mossy Nissan,77079,29.785494,-95.60022,39729
Tom Peacock Nissan,77090,29.990205,-95.423096,39730
Robbins Nissan,77338,29.990275,-95.275606,39731
Clay Cooley Nissan,75062,32.849437,-96.914294,39732
Katy Nissan,77494,29.775354,-95.817237,39733
Bates Nissan,76543,31.078549,-97.692745,39734
Sames Kingsville Nissan,78363,27.492086,-97.84753,39735
Family Nissan of Laredo,78041,27.528418,-99.458211,39736
Clear Lake Nissan,77573,29.484543,-95.10255,39737
AutoNation Nissan - Lewisville,75067,33.022937,-96.988337,39738
Patterson Nissan - Longview,75605,32.553772,-94.727241,39739
McGavock Nissan,79424,33.535048,-101.958266,39740
Nissan of McKinney,75069,33.161606,-96.644662,39741
Trophy Nissan,75150,32.829838,-96.629967,39742
Nissan of Midland,79707,32.024113,-102.151567,39743
Twin City Nissan,77640,29.953433,-94.0071,39745
Courtesy Nissan,75080,32.97135,-96.719803,39746
Gillman Nissan,77471,29.534537,-95.772812,39747
Round Rock Nissan,78681,30.54205,-97.69265,39748
Jim Bass Nissan,76901,31.44646,-100.496244,39749
Ancira Nissan,78230,29.543147,-98.57544,39750
Gunn Nissan,78209,29.517253,-98.467365,39751
Ingram Park Nissan,78238,29.457047,-98.625324,39752
World Car Nissan,78233,29.556508,-98.34469,39753
Nissan of San Marcos,78666,30.4963137,-97.6809454,39754
Nissan of Silsbee,77656,30.314894,-94.18396,39755
Sterling McCall Nissan,77477,29.645808,-95.57612,39756
Garlyn Shelton Nissan,76502,31.079653,-97.410328,39757
Peltier Nissan,75701,32.31165413,-95.34249986,39758
Victory Nissan,77904,28.851423,-96.997881,39759
Douglas Nissan,76712,31.495348,-97.160226,39760
Southwest Nissan,76087,32.7561,-97.705239,39761
Nissan of Wichita Falls,76309,33.88049,-98.545953,39762
Passport Nissan - Alexandria,22304,38.809675,-77.122192,39763
Priority Nissan - Chantilly,20151,38.899751,-77.460168,39764
Colonial Nissan,22901,38.086121,-78.474663,39765
Brown's Fairfax Nissan,22030,38.85358,-77.324803,39766
Pomoco Nissan - Hampton,23666,37.042363,-76.388316,39768
Sheehy Nissan - Manassas,20110,38.760854,-77.459274,39769
Shell - YESS! Convenience 4U,23805,37.175139,-77.352948,39770
SCIENCE MUSEUM SCIENCE MUSEUM1,23220,37.561646,-77.465974,39771
First Team Nissan,24019,37.345779,-79.962578,39772
Brown's Dulles Nissan,20166,39.010459,-77.438399,39773
Priority Nissan,22182,38.927033,-77.240836,39774
Tri-State Nissan,22602,39.156514,-78.147297,39775
Rairdon's Nissan - Auburn,98002,47.338754,-122.221114,39776
Bellingham Nissan,98229,48.755607,-122.454132,39778
Advantage Nissan,98312,47.562162,-122.684286,39779
Burien Nissan,98148,47.458466,-122.333257,39780
Campbell-Nelson Nissan,98026,47.778229,-122.344838,39782
Campbell Nissan - Everett,98204,47.90272982,-122.2469884,39783
Olympia Nissan,98502,47.031067,-122.930247,39786
Bill Robertson Nissan,99301,46.236607,-119.128998,39787
Dan Wilder Nissan,98362,48.102863,-123.342273,39788
Puyallup Nissan,98371,47.207367,-122.294997,39789
Younker Nissan,98058,47.448354,-122.2188,39791
Wendle Nissan,99218,47.739021,-117.409937,39795
Dave Smith Nissan - Spokane,99212,47.657264,-117.312518,39796
Tacoma Nissan,98409,47.21978,-122.48576,39797
Alan Webb Nissan,98662,45.648094,-122.597954,39798
O'Brien Nissan,99362,46.047464,-118.353406,39799
Mountain View Nissan,37408,35.030251,-85.308376,39802
Harold Mathews Nissan,37043,36.513006,-87.268667,39803
Cookeville Nissan,38501,36.137109,-85.496453,39805
Victory Nissan West,37055,36.023934,-87.340223,39806
Rick Hill Nissan,38024,36.063277,-89.379485,39807
Nissan of Cool Springs,37067,35.957857,-86.80853,39808
Newton Nissan of Gallatin,37066,36.361376,-86.494932,39809
Tri-Cities Nissan,37601,36.374198,-82.372119,39811
Wallace Nissan Oldsmobile,37660,36.551978,-82.487762,39812
Ted Russell Nissan,37919,35.920587,-84.067881,39813
Rusty Wallace Nissan,37912,35.999617,-83.969451,39814
Nissan of Rivergate,37115,36.29062,-86.7051,39815
Roberts Nissan,37355,35.454702,-86.041805,39816
Weakley County Motors,38237,36.369277,-88.849653,39817
AutoNation Nissan - Memphis,38125,35.0353,-89.795859,39818
Jim Keras Nissan,38128,35.181031,-89.895533,39819
East Tennessee Nissan,37814,36.18226,-83.382387,39820
Nissan of Murfreesboro,37129,35.854156,-86.394979,39821
Action Nissan,37211,36.110606,-86.743585,39822
Downtown Nashville Nissan,37228,36.191053,-86.793132,39823
Carr Nissan,97005,45.491783,-122.81107,39827
Lithia Nissan of Bend,97701,44.055213,-121.277279,39828
Kiefer Nissan,97330,44.572608,-123.258425,39830
Lithia Nissan of Eugene,97401,44.05902085,-123.0813975,39831
Dick Hannah Nissan,97027,45.378967,-122.603899,39832
Chuck Colvin Nissan,97128,45.227394,-123.180863,39836
Lithia Nissan,97504,42.379969,-122.858192,39837
Rustom Nissan - Portland,97230,45.531759,-122.537403,39838
Power Nissan - Salem,97302,44.921582,-123.006236,39839
Ray Schultens Nissan,97058,45.613979,-121.20996,39840
Tonkin Nissan,97070,45.326814,-122.770853,39841
Dick Smith Nissan,29210,34.055164,-81.128164,39842
Dick Smith Nissan,29072,33.997902,-81.222504,39844
Twin City Nissan,37701,35.830725,-83.974822,39845
Wolfchase Nissan,38133,35.205818,-89.791337,39846
Bill Gatton Nissan,37620,36.54282,-82.2354,39847
Nissan of Chattanooga East,37421,35.056433,-85.190515,39848
Benton Nissan - Hoover,35216,33.394903,-86.807186,39849
Matt Bowers Nissan Eastern Shore,36526,30.660697,-87.858464,39850
Lynn Layton Cad-Nissan,35601,34.563857,-86.972193,39851
Jack Ingram Motors,36117,32.376832,-86.208559,39852
Avondale Nissan,85323,33.459826,-112.284168,39853
AutoNation Nissan - Chandler,85286,33.286316,-111.791107,39854
Anderson Nissan,86404,34.54217,-114.35287,39855
East Valley Nissan,85206,33.385361,-111.695062,39856
Larry H Miller Nissan - Mesa,85201,33.434313,-111.872266,39857
Peoria Nissan,85382,33.636921,-112.253682,39858
ABC Nissan,85014,33.509862,-112.054162,39859
Coulter Nissan,85388,33.605183,-112.420442,39860
Midway Nissan,85023,33.639038,-112.108088,39861
Pinnacle Nissan,85260,33.635224,-111.915739,39862
AutoNation Nissan - Tempe,85284,33.346812,-111.967793,39863
Jim Click Nissan,85705,32.289823,-110.985646,39864
Thoroughbred Nissan,85711,32.207374,-110.881798,39865
Antioch Nissan,94509,38.007799,-121.832042,39870
Nissan of Bakersfield,93313,35.310723,-119.035324,39871
Buena Park Nissan,90621,33.865497,-117.995215,39872
Carson Nissan,90745,33.824968,-118.245675,39873
Palm Springs Nissan,92234,33.78414,-116.471,39874
Cerritos Nissan,90703,33.861544,-118.100471,39875
Chico Nissan,95926,39.756332,-121.843715,39876
Puente Hills Nissan,91748,33.997621,-117.928216,39877
Lithia Nissan - Clovis,93612,36.836818,-119.717629,39878
Nissan of Serramonte,94014,37.671267,-122.463541,39879
Autocom Nissan - Concord,94520,37.980192,-122.050128,39880
Larry H Miller Nissan,92882,33.88309,-117.615292,39881
Orange Coast Nissan,92626,33.675397,-117.918684,39882
Hanlees Nissan,95618,38.55252,-121.691555,39883
Downey Nissan,90241,33.9473,-118.151166,39884
Nissan of Duarte,91010,34.136553,-117.975944,39885
Mossy Nissan - El Cajon,92020,32.795896,-116.976156,39886
Ross Nissan of El Monte,91731,34.069536,-118.026911,39887
Nissan of Elk Grove,95757,38.402217,-121.385527,39888
Mossy Nissan - Escondido,92029,33.116492,-117.106837,39889
McCrea Nissan,95501,40.800562,-124.164405,39890
Future Nissan of Folsom,95630,38.634132,-121.204871,39891
Fontana Nissan,92336,34.135345,-117.445732,39892
Premier Nissan of Fremont,94538,37.489389,-121.9576,39893
Lithia Nissan - Fresno,93710,36.818622,-119.789796,39894
Imperio Nissan of Garden Grove,92844,33.766376,-117.968337,39895
Gardena Nissan,90247,33.889201,-118.307028,39896
South County Nissan,95020,36.996869,-121.558573,39897
Glendale Nissan,91204,34.137054,-118.25536,39898
Santa Barbara Nissan,93117,34.43427,-119.820934,39899
Hayward Nissan,94544,37.662305,-122.075178,39901
Pedder Nissan,92545,33.741163,-117.031718,39902
Surf City Nissan,92647,33.71069,-117.989861,39903
Nissan of Irvine,92618,33.632505,-117.723298,39904
Torre Nissan,92253,33.70711,-116.283712,39905
Nissan of Downtown Los Angeles,90015,34.035168,-118.273229,39906
Universal City Nissan,90068,34.133446,-118.356601,39907
Razzari Nissan,95340,37.305891,-120.502428,39908
Nissan of Mission Hills,91345,34.269809,-118.466606,39910
Central Valley Nissan,95356,37.705119,-120.99471,39911
Metro Nissan of Montclair,91763,34.082404,-117.694876,39912
Metro Nissan of Redlands,92374,34.065387,-117.212007,39913
Napa Nissan,94559,38.292706,-122.277767,39914
Mossy Nissan,91950,32.659001,-117.100836,39915
Mossy Nissan - Oceanside,92056,33.181953,-117.298334,39916
Stadium Nissan,92867,33.80857,-117.864434,39917
Team Nissan,93036,34.22771,-119.150217,39918
Antelope Valley Nissan,93551,34.591173,-118.138184,39919
North Bay Nissan,94952,38.267202,-122.665068,39920
Mossy Nissan - Poway,92064,32.956772,-117.025943,39921
Crown Nissan,96002,40.571632,-122.36654,39922
Boardwalk Nissan,94063,37.495963,-122.227322,39923
Hanlees Hilltop Nissan,94806,37.985253,-122.32124,39925
Raceway Nissan,92507,33.941878,-117.297603,39926
Riverside Nissan,92504,33.925469,-117.419673,39927
Future Nissan,95661,38.752198,-121.256452,39928
Nissan of Sacramento,95821,38.631393,-121.396604,39929
My Nissan,93907,36.720023,-121.662519,39930
Larry H Miller Nissan - San Bernardino,92408,34.074378,-117.298,39931
Mossy Nissan - Kearny Mesa,92111,32.833179,-117.147384,39932
Pacific Nissan,92109,32.802475,-117.215269,39933
Nissan Sunnyvale,94087,37.359362,-122.022783,39934
Premier Nissan,95136,37.275144,-121.877656,39935
Nissan - San Juan Capistrano,92675,33.47443,-117.676142,39936
San Leandro Nissan,94577,37.712609,-122.162746,39937
Coast Nissan,93405,35.25062,-120.68455,39938
Stevens Creek Nissan,95051,37.323569,-121.988027,39939
Jim Bone Nissan,95404,38.425537,-122.714089,39943
Cardinale Nissan,93955,36.611189,-121.849899,39944
Nissan of Van Nuys,91401,34.168824,-118.449059,39945
First Nissan,93065,34.277324,-118.778957,39947
Nissan of Stockton,95212,38.022022,-121.275339,39948
Quality Nissan - Temecula,92591,33.516768,-117.155039,39949
Tracy Nissan,95304,37.75990555,-121.4632052,39951
Nissan of Tustin,92782,33.72484,-117.799302,39952
Nissan of Vacaville,95687,38.381441,-121.941218,39953
Champion Nissan,91355,34.420546,-118.557774,39954
Vallejo Nissan,94590,38.118088,-122.255493,39955
Valley Hi Nissan,92394,34.517883,-117.3219,39956
Nissan of Visalia,93292,36.32327,-119.27569,39957
West Covina Nissan,91791,34.074227,-117.890899,39959
Firkins Nissan,34207,27.462023,-82.578036,39962
Maus Nissan,34448,28.848733,-82.57947,39963
Deland Nissan,32720,28.983689,-81.300079,39964
Delray Nissan,33483,26.435016,-80.072333,39965
Fort Lauderdale Nissan,33316,26.109825,-80.137099,39966
Westside Nissan,32210,30.288306,-81.730832,39967
Fuccillo Nissan,32244,30.212415,-81.736209,39968
Rountree-Moore Nissan,32055,30.18082,-82.702224,39969
Bill Seidle's Nissan,33172,25.783121,-80.366772,39970
Palmetto 57 Nissan,33055,25.9262,-80.292105,39971
AutoNation Nissan - Miami,33135,25.76506,-80.250516,39972
AutoNation Nissan - Kendall,33157,25.609391,-80.348241,39973
AutoNation Nissan - Pembroke Pines,33024,26.007358,-80.263072,39974
Alan Jay Nissan,33870,27.485756,-81.481603,39975
Wallace Nissan,34997,27.152729,-80.217708,39976
Courtesy Nissan - Tampa,33614,27.995139,-82.506186,39978
Ferman Nissan - North Tampa,33612,28.049764,-82.458596,39979
Sutherlin Nissan,32962,27.585356,-80.376442,39980
City of West Palm Beach - City Center Garage,33401,26.713894,-80.05421,39981
Hill Nissan,33884,27.982961,-81.676059,39982
Sutherlin Nissan - Mall of Georgia,30519,34.075281,-83.98366,39983
Nalley Nissan of Atlanta,30360,33.907866,-84.283186,39985
Gwinnett Place Nissan,30096,33.967935,-84.146036,39986
Stone Mountain Nissan,30047,33.841932,-83.905677,39988
AutoNation Nissan - Thornton Road,30122,33.784015,-84.612737,39989
AutoNation Nissan - Marietta,30060,33.92909,-84.50889,39990
Nissan South,30260,33.566938,-84.344405,39991
Regal Nissan,30076,34.022437,-84.327529,39992
Nissan South Union City,30291,33.565412,-84.521117,39993
Five Star Nissan,31088,32.555572,-83.66552,39994
New City Nissan,96819,21.335175,-157.88225,39995
Jim Falk Motors - Maui,96732,20.8891,-156.458605,39996
King Windward Nissan,96744,21.399116,-157.799326,39997
Tony Nissan,96797,21.42849,-157.998343,39998
Municipal Garage,21202,39.291785,-76.610539,40012
Bel Air Nissan,21014,39.505659,-76.382317,40018
Community College of Baltimore County (CCBC),21228,39.256947,-76.730918,40020
Younger Nissan,21704,39.391175,-77.407835,40025
Criswell Nissan,20874,39.177414,-77.249773,40026
Passport Nissan - Marlow Heights,20746,38.82681,-76.923233,40029
Darcars Nissan,20855,39.113757,-77.161016,40030
Herb Gordon Nissan,20904,39.077447,-76.947933,40033
Lawson Parking Ramp,55102,44.946327,-93.095535,40046
Lower Town Parking Ramp,55101,44.947042,-93.088226,40047
Currie Maintenance Facility,55415,44.977961,-93.282508,40053
St. Paul Natural Resources Department,55108,44.973838,-93.156808,40056
St. Paul Public Works Maintenance Garage,55103,44.967593,-93.127742,40057
World Trade Center Parking Ramp,55101,44.948972,-93.0962,40063
Modern Nissan - Concord,28027,35.392063,-80.622777,40066
Fred Anderson Nissan,28304,35.042419,-78.956747,40067
Vann Yorks High Point Nissan,27260,35.937981,-79.996012,40068
Nissan of Lumberton,28358,34.634487,-78.997134,40069
International Brotherhood of Electrical Workers 569 - NECA Electrical Training Center,92123,32.823912,-117.12114,40185
Clemson Area Transit,29631,34.702398,-82.801828,40248
James River Air Conditioning,23230,37.578536,-77.48754,40255
NV ENERGY 6100 NEIL RD 4,89511,39.467032,-119.779038,40367
PIE AE OTC 3FL PKGSTA3,78704,30.256917,-97.749169,40372
AT&T,75201,32.779791,-96.7990454,40376
New River Nissan,24073,37.1581,-80.4203,40380
Hyman Brothers Nissan,23113,37.50418,-77.61949,40382
KEY CENTER KEY CENTER 6,98004,47.616104,-122.19696,40383
KRC SKYLINE SKYLINE #1,98004,47.61434,-122.194037,40384
PUBLIC STATIONS PRINCE CLUB E,53704,43.121878,-89.309902,40389
PUBLIC STATIONS MID LIB GP,53562,43.094649,-89.50964,40390
Smart Center San Diego,92111,32.82408524,-117.1471252,40407
LEESBURG FL LIBRARY 01,34748,28.811736,-81.875204,40427
CITY OF HOLLAND 127 E 8TH,49423,42.790376,-86.101511,40444
3M Customer Innovation Center,55119,44.96232,-93.0005,40459
Harper Corp,29601,34.848783,-82.401211,40482
South Carolina Technology and Aviation Center,29605,34.756982,-82.383799,40522
Stone's Cove Kitbar,20171,38.951695,-77.409238,40565
County of Greenville - County Square,29601,34.840912,-82.400037,40570
Furman University - Admissions Building,29613,34.926241,-82.433164,40571
Figaro Restaurant,6082,41.997588,-72.583384,40572
Victor Building Parking Garage,20001,38.899392,-77.024385,40593
Jupiter Town Hall Complex,33458,26.9322,-80.1027,40594
City of Auburn Hills - Log Cabin Streetside Parking,48326,42.6336,-83.220931,40596
DTE Energy - Caniff Service Center,48211,42.395383,-83.074263,40599
DTE Energy Headquarters - Executive Garage,48226,42.334321,-83.056903,40600
DTE Energy - Headquarters Visitor Lot,48226,42.33375168,-83.05662,40601
DTE Energy - Warren Service Center,48204,42.344978,-83.128128,40602
MGM Casino - Public Parking Structure,48226,42.33476,-83.0608,40603
City of Rochester - City Hall & Municipal Park,48307,42.683212,-83.1366,40607
City of Rochester - Huntington Bank,48307,42.678841,-83.132684,40608
Village of Rochester Hills,48309,42.682914,-83.193236,40609
City of Saline - City Parking Lot #2,48176,42.166498,-83.780162,40610
Cuyahoga Community College - Advanced Automotive Technology Center,44130,41.36684,-81.7638,40613
Crystal Mountain Resort & Spa,49683,44.520371,-85.991356,40653
Annapolis Friends Meeting,21401,39.001676,-76.525253,40689
Quigley Chevrolet,19503,40.397876,-75.588988,40697
Richmond Ford Lincoln,23230,37.578775,-77.489409,40701
Emagine Entertainment,48067,42.455,-83.131111,40704
Marriott Hotel - Underground Deck,27601,35.772881,-78.638502,40745
City of Raleigh - Performing Arts Center Deck,27601,35.772619,-78.641492,40747
City of Raleigh - Wilmington Station Deck,27601,35.77937,-78.638203,40751
Southern Oregon University - Lot 8,97520,42.187149,-122.689496,40752
Mentor Graphics,97070,45.317487,-122.759692,40765
Atmosera,97005,45.475743,-122.776517,40775
Clackamas County Sheriff's Office - Brooks Building,97015,45.43039547,-122.5722027,40777
Jim Ellis Chevrolet,30341,33.90999,-84.2914,40790
O'Hare Airport - Short Term Parking,60666,41.97850582,-87.90328,40794
Rivers Casino,60018,41.99774,-87.864217,40806
EBSCO,1938,42.677227,-70.839264,40811
WATERFORD GROUP COURTYARD 2,3301,43.21772,-71.536324,40840
Neal's Garage,27705,36.009999,-78.921405,40854
SHERWOOD CANNERY #1,97140,45.355354,-122.840126,40904
SHERWOOD CANNERY #2,97140,45.356319,-122.838837,40905
SHEALY-COLUMBIA COUNTER SALES,29172,33.931732,-81.059303,40940
Kum & Go #408,72712,36.379802,-94.177871,40965
OUC CAY COMMONS 01,32819,28.424816,-81.445089,40978
OUC DOMINOS UNIT 01,32809,28.470548,-81.396861,40979
OUC VISTA CAY 01,32819,28.429047,-81.44937,40983
OUC WINGATE 1,32819,28.485994,-81.457176,40984
Kum & Go #206,50325,41.607327,-93.735902,40996
Kum & Go #134,52556,41.00709,-91.981752,40997
Kum & Go #572,50322,41.645933,-93.769432,40998
CHARLES COUNTY INDIAN HEAD1,20640,38.623533,-77.086898,41006
CHARLES COUNTY CRAIN CENTER1,20664,38.369101,-76.960389,41007
Haworth Inn & Conference Center,49423,42.78875732,-86.10360718,41025
DTE Energy - Allen Road Center,48122,42.292146,-83.178699,41043
Novus - Employee Parking,63304,38.709309,-90.683128,41047
Giant Eagle - Warehouse,15205,40.453507,-80.085371,41049
TC Chevrolet,97520,42.219548,-122.740005,41085
Florida Power & Light - Central Garage,33130,25.7703,-80.196621,41093
Florida Power & Light - Automotive Engineering Center,33407,26.769595,-80.102645,41096
Florida Power & Light - Jupiter Service Center,33458,26.932602,-80.118594,41099
Florida Power & Light - Customer Service East,33407,26.764076,-80.10151,41100
Florida Power & Light - LeJeune Flagler Office,33134,25.770827,-80.264645,41101
Florida Power & Light - Dade Meters Distribution,33166,25.833883,-80.313867,41102
Randolph-Macon College - Andrews Hall,23005,37.764986,-77.476715,41108
Saint Francis Eastside Hospital - Bon Secours Health System,29615,34.850504,-82.322852,41121
Fred Caldwell Chevrolet,29710,35.105398,-81.208515,41122
Meridian Associates Inc,1915,42.562222,-70.88959,41127
Smithsonian Environmental Research Center (SERC),21037,38.893647,-76.539373,41230
NV ENERGY NV ENERGY 03,89146,36.145081,-115.227058,41237
James J Peters VA Medical Center,10468,40.867403,-73.906405,41240
Greenville-Spartanburg International Airport - National Car Rental,29651,34.889277,-82.215666,41263
Greenville-Spartanburg International Airport - Parking Lot B,29651,34.889453,-82.215505,41264
PIE AE ANIMAL SERVICE2,78702,30.251357,-97.689015,41265
PIE AE PUBDITTMAR2,78745,30.18534,-97.801184,41266
PIE AE MILWOOD LIB 2,78727,30.422284,-97.71646,41269
PIE AE PUB-STDAVIDSST1,78701,30.268887,-97.738936,41272
Mountain View Civic Center Garage,94041,37.390383,-122.0827,41347
Towers at Great America,95054,37.397144,-121.976831,41351
Advanced Micro Devices Inc,95054,37.38237,-121.970806,41352
Harrisonburg Electric Commission,22801,38.447533,-78.870744,41395
Country Chevrolet,55302,45.256075,-94.107832,41446
City of Kingsport - Parking Garage,37660,36.547921,-82.56179,41483
PUBLIC STATIONS FITCHBURG CC,53711,43.002006,-89.423463,41520
PUBLIC STATIONS LAKE ST ADA,53715,43.074008,-89.397267,41524
PUBLIC STATIONS VILAS ZOO ADA,53715,43.058323,-89.410359,41525
Marsh Street Parking Structure,93401,35.279705,-120.6609,41526
Wilkerson Nature Preserve Park,27614,35.92353,-78.599883,41553
Caplan's Rainbow Parking,98104,47.604115,-122.332907,41579
Airlie Center,20187,38.7566,-77.793511,41581
HIGHLANDCHEVRON HIGHLAND DUAL 1,97005,45.475962,-122.825561,41758
Arlington County CSW,22201,38.889751,-77.08499,41772
IBEWLOCAL26JATC MANASSAS 1,20109,38.803836,-77.516487,41773
CITY OF SEATAC CITY HALL 1,98188,47.434021,-122.273183,41776
Puget Sound Energy,98409,47.22213,-122.478493,41779
TPU TPU HQ #6,98409,47.228593,-122.484226,41780
LEE COUNTY GOV ADMIN EAST,33901,26.642789,-81.869132,41800
OUC SHERATON UNIT 1,32819,28.463514,-81.461419,41809
OUC OUC GARDENIA 01,32839,28.503733,-81.422651,41810
CITY OF TAMPA TWIGGS GARAGE 1,33602,27.951258,-82.451781,41814
DTE Energy - Ann Arbor Ashley Mews Building,48104,42.277419,-83.749477,41828
DTE Energy - Redford Service Center,48239,42.374558,-83.281933,41836
CLT AIRPORT BV2 BASEMENT 1,28208,35.233542,-80.936932,41847
PALMER SQUARE CHAMBERS GARAGE,8542,40.350118,-74.662732,41849
Mission Trail Baptist Hospital,78235,29.343808,-98.436931,41941
Department of Accounting General Services - Hawaii State Motor Pool,96813,21.303788,-157.860031,41982
Hawaii State Capitol Basement Parking Garage,96813,21.30703,-157.857725,41984
Hawaii State Office Tower,96813,21.309472,-157.857848,41985
Ka'ahumanu Hale First Circuit Court Parking Garage,96813,21.302295,-157.861322,41986
Sheraton Waikiki,96815,21.27871,-157.83013,41987
Waikiki Beach Marriott,96815,21.272518,-157.823246,41988
McHenry Row - Harris Teeter,21230,39.26894,-76.5996,41989
American Bush - Solar Canopy,84115,40.714413,-111.900552,42013
Anchor Nissan,2896,41.96108,-71.494611,42016
Net Zero USA,30004,34.138312,-84.251109,42032
Ashforth,6905,41.071157,-73.549133,42043
City of Tacoma - Municipal Building,98402,47.255854,-122.44172,42044
CITY BRADENTON RIVERWALK,34205,27.499076,-82.569442,42110
Orlando Health - Dr. P Phillips Hospital,32819,28.429987,-81.475116,42124
OUC OUC PERSHING 01,32822,28.499373,-81.303897,42125
OUC OC FAMILY SERV,32806,28.51288,-81.358702,42131
DON CESAR HOTEL EV CHARGER 01,33706,27.709441,-82.736735,42136
HARVARD PILGRIM HPHCQ2,2169,42.232376,-71.019877,42169
GVSU CAMPUS SEWARD RAMP 1,49504,42.964844,-85.681992,42178
NEMC GREEN HCOC III,48377,42.499039,-83.439339,42186
Duke Energy,45202,39.09971237,-84.50933838,42196
Park 'N Fly,77032,29.94917,-95.33138,42209
BELLEVUE SBCC #2,98006,47.568871,-122.145285,42228
SAMMAMISH GARAGE 1,98075,47.601657,-122.036938,42240
CITY BRADENTON JUDICIALGARAGE2,34205,27.493279,-82.573234,42285
Embassy Suites Hotel - Waikiki Beach Walk,96815,21.279142,-157.831689,42382
Ohana Waikiki East,96815,21.277846,-157.825052,42384
Kwik Star #490,50613,42.470441,-92.447165,42385
Kwik Star #468,50616,43.064697,-92.679504,42386
Kwik Star #495,52003,42.491964,-90.702489,42387
Kwik Trip #622,55920,44.029434,-92.647766,42388
Kwik Trip #497,55925,43.923929,-91.438722,42389
Kwik Trip #316,55350,44.871014,-94.37622,42390
Kwik Trip #844,55041,44.443257,-92.27515,42391
Kwik Trip #806,55060,44.090303,-93.218557,42392
Kwik Trip #681,55376,45.217806,-93.598222,42393
Raleigh Municipal Building Deck,27601,35.779082,-78.641779,42396
City of Raleigh,27601,35.777283,-78.639281,42397
City of Raleigh - Walnut Creek Wetland Center,27610,35.760503,-78.625345,42398
City of Raleigh - Optimist Park and Community Center,27609,35.862603,-78.643641,42399
City of Raleigh - Jaycee Park and Community Center,27607,35.800443,-78.663445,42400
City of Raleigh - Wilders Grove,27610,35.788789,-78.573106,42401
City of Raleigh - Transit Center,27610,35.767483,-78.563464,42402
City of Raleigh - Transit Center,27610,35.767483,-78.563464,42403
Giant Eagle #43 - Pine Township,15090,40.632138,-80.054285,42404
Kwik Trip #430,54304,44.475101,-88.07411,42405
Kwik Trip #633,54701,44.770755,-91.462562,42406
Kwik Trip #485,53121,42.694575,-88.54249,42407
Kwik Trip #367,53933,43.567014,-88.916183,42408
Kwik Trip #827,54304,44.49794,-88.047556,42409
Kwik Trip #761,54601,43.808392,-91.249744,42411
Kwik Trip #434,54956,44.175548,-88.486274,42412
Kwik Trip #422,53154,42.87166,-87.933821,42413
Kwik Trip #741,54902,43.995124,-88.54311,42414
Kwik Trip #338,54467,44.469299,-89.545776,42415
Kwik Trip #653,53901,43.534255,-89.443353,42416
Kwik Trip #453,54022,44.872692,-92.620617,42417
Kwik Trip #897,53083,43.773321,-87.733952,42418
Kwik Trip #436,53186,42.994746,-88.201575,42420
Kwik Trip #832,53597,43.191654,-89.452404,42421
Kwik Trip #845,54982,44.073397,-89.283061,42422
Paul Masse Chevrolet,2914,41.823099,-71.347614,42423
Town of Normal - Fire Department Headquarters,61761,40.505132,-88.994211,42460
Town of Normal - Public Works Department,61761,40.496969,-89.004735,42461
Beaufort Street Parking Deck,61761,40.507954,-88.986429,42462
Whole Foods Market,70115,29.920829,-90.117642,42488
Loyola University - New Orleans,70118,29.9347,-90.120883,42492
Heartland Community College - Workforce Development Center,61761,40.535456,-89.013791,42499
New Belgium Brewing,80524,40.593417,-105.0684,42529
NIPSCO HEADQUARTERS-E,46410,41.460671,-87.327074,42538
City of Boulder - Municipal Service Center,80301,40.024578,-105.232194,42542
City of Boulder - Park Central Building,80302,40.0148,-105.2792,42543
Frito Lay LLC,43213,39.986545,-82.823727,42639
Ohio Statehouse Parking Garage,43215,39.960356,-82.998458,42640
GATEWAY TECH ELKHORN 1,53121,42.666735,-88.524261,42656
Riteway Bus Service Inc,53154,42.909432,-87.928747,42659
Norwich Public Utilities,6360,41.526802,-72.063684,42689
OUC INFUSION TEA 01,32804,28.565738,-81.389771,42701
Marriott - Wailea Beach,96753,20.688309,-156.439752,42705
Heartland Community College - Astroth Community Education Center,61761,40.534785,-89.011493,42711
CITY OF GR PARK GOV CENTER RAMP,49503,42.969202,-85.670457,42719
CITY OF GR PARK OTTAWA FULTON 1,49503,42.963679,-85.670993,42720
Ann Arbor Downtown Development Authority - Library Parking Structure,48104,42.278754,-83.745565,42726
CITY OF GR PARK GALLERY PLACE,49503,42.962871,-85.668737,42729
Alexander's Storage,38401,35.61323,-87.034614,42872
Balise Nissan - Warwick,2888,41.742755,-71.428289,42888
Elizabeth Parking Authority - J Christian Bollwage Garage,7201,40.663848,-74.216585,42907
The Green Parking Garage,28202,35.223874,-80.846273,42927
Middle Tennessee Electric Membership Corp - Corporate Headquarters,37129,35.837613,-86.407098,42939
Eaton Corp,15108,40.492883,-80.200182,42966
AAA Car Care Plus,14226,42.979363,-78.821443,42992
AAA Car Care Plus,14221,42.965851,-78.69278,42993
Tynan's Nissan,80525,40.505604,-105.078041,43021
WHOLE FOODS MKT OKCWESTERN 2,73118,35.533862,-97.531053,43022
Mountain Energy Market of Vermont,5155,43.199508,-72.820633,43090
COL GARAGE EVSE 1,33801,28.04433,-81.954245,43124
NATIONAL GRID CHILIS LEOMNSTR,1453,42.525121,-71.713346,43178
NATIONAL GRID CHILIS WESTFORD,1886,42.5703,-71.41896,43182
NATIONAL GRID UNION STATION 1,1604,42.260546,-71.794678,43186
UM PTS GRAND,21201,39.290036,-76.621894,43190
UM PTS PEARL #3,21201,39.290764,-76.62439,43191
UM PTS PRATT,21201,39.28651,-76.624935,43195
UM PTS PLAZA #1,21201,39.28808,-76.622679,43196
DTE Energy - Western Wayne Center,48111,42.244351,-83.444131,43248
DTE Energy - Pontiac Service Center,48320,42.615654,-83.324374,43249
DTE Energy - Headquarters Cato Substation,48226,42.335279,-83.057424,43250
DTE Energy - Headquarters Directors Lot,48226,42.334668,-83.056126,43251
DTE Energy - Headquarters Employee Lot,48226,42.334232,-83.0566,43252
University of Detroit Mercy,48221,42.41423,-83.1364,43253
THOMSON REUTERS EAGAN CAMPUS,55123,44.825192,-93.112679,43254
FLASTER GREENBERG PC,8002,39.934849,-75.029991,43260
ACC ROUNDROCK STAT4,78665,30.563925,-97.658312,43281
JBG SMITH STATION 2,22201,38.890342,-77.085782,43290
JBG SMITH 2231 CRYSTAL DR,22202,38.85424,-77.049408,43292
IBEW LOCAL 46 IBEW LOCAL 46 1,98032,47.424222,-122.256619,43299
VALLEY MED CTR MAIN LOT #5,98055,47.443255,-122.212445,43303
VALLEY MED CTR N GARAGE #1,98055,47.444606,-122.214491,43305
PUBLIC STATIONS ALDO LEOPOLD,53716,43.054704,-89.321148,43308
North Carolina State University - McKimmon Center and Solar House,27606,35.78214,-78.6864,43324
Cambria Suites - Traverse City,49686,44.763048,-85.585342,43329
Great Escape Restaurant,60176,41.955233,-87.865268,43358
Taylor Automotive,27330,35.49416,-79.180591,43363
EVSP WALGREENS STORE 13012,20112,38.672391,-77.396964,43390
ACCESS MAIL EVSE UNIT 01,33760,27.901732,-82.721249,43415
OUC HILTON UNIT 01,32819,28.425298,-81.456277,43418
OUC STCL CITY HALL1,34769,28.249967,-81.28294,43420
OUC STCL SR CTR 1,34769,28.250888,-81.279774,43422
EVSP WALGREENS STORE 5623,21215,39.326834,-76.681801,43440
EVSP WALGREENS STORE 6396,21237,39.334156,-76.495725,43444
Goodwill,55434,45.183283,-93.237039,43451
Minnesota Department of Natural Resources,55155,44.956138,-93.084209,43455
City of Columbia - Sumter Street Garage,29201,34.004883,-81.032931,43458
City of Columbia - Lady Street Garage,29201,34.002107,-81.035726,43459
Malibu Country Mart,90265,34.035802,-118.686393,43478
Golden Gate National Recreation Area - Crissy Field,94129,37.806099,-122.449461,43526
Tampa Area Electrical JATC,33610,27.988197,-82.392164,43551
Miami Dade County Fleet,33128,25.7752,-80.198072,43615
University of Connecticut - Motor Pool,6269,41.811817,-72.261825,43616
Balise Nissan - Warwick,2888,41.742755,-71.428289,43760
Middle Tennessee Electric Membership Corp - District Office,37067,35.922223,-86.821182,43761
Nissan North America,37067,35.940203,-86.813764,43762
Middle Tennessee Electric Membership Corp - District Office,37090,36.174597,-86.298021,43763
Middle Tennessee Electric Membership Corp - District Office,37128,35.843311,-86.446636,43764
City of Renton - City Shops,98056,47.483635,-122.170748,43795
City of Renton - City Hall,98057,47.474537,-122.204976,43796
PW PARKING A ST GARAGE 01,98402,47.253809,-122.437429,43804
PW PARKING GLASS MUSEUM 01,98402,47.245934,-122.43398,43806
Pierce County - Annex Lot,98409,47.228866,-122.469105,43808
Pierce County - City Building,98402,47.253668,-122.446141,43809
Tremont Street Garage,80202,39.742113,-104.991416,43833
Greater Hartford Transit District - Spruce Street Lot,6103,41.769417,-72.681825,43834
One Parking,20004,38.896703,-77.027621,43836
Carriage Nissan,30504,34.275207,-83.85946,43839
Town Center Nissan,30144,34.010005,-84.577162,43840
State Street Garage,2109,42.358449,-71.055089,43860
MASS AUDUBON JOPPA FLATS,1950,42.799163,-70.847133,43865
NATIONAL GRID CHILIS PLNVILLE,2762,42.032751,-71.311914,43868
Carolina Nissan,27215,36.063557,-79.503697,43876
Carolina Nissan,27215,36.063557,-79.503697,43877
North Carolina State University - Joyner Visitor Center,27606,35.784037,-78.684667,43880
Carmine's Coal Fired Pizza,33458,26.892152,-80.102668,43971
AC REG PLANNING STATION 1,5753,44.015999,-73.165412,44012
Delta Electronics,94538,37.488952,-121.948969,44017
Campbell-Nelson Nissan,98026,47.778229,-122.344838,44136
Campbell Nissan - Everett,98204,47.90272982,-122.2469884,44137
Olympia Nissan,98502,47.031067,-122.930247,44147
Bill Robertson Nissan,99301,46.236607,-119.128998,44148
Puyallup Nissan,98371,47.207367,-122.294997,44150
Younker Nissan,98058,47.448354,-122.2188,44151
City of Seattle - Central Library,98104,47.606684,-122.332664,44153
City of Seattle - Charles Street,98134,47.594042,-122.317179,44154
City of Seattle - Muni Tower,98124,47.604906,-122.330278,44156
City of Seattle - Parking Enforcement Division,98134,47.582934,-122.323106,44158
City of Seattle - Seattle Center,98109,47.622085,-122.347124,44159
City of Seattle - Seattle City Light North Service Center,98103,47.699613,-122.341922,44160
City of Seattle - Seattle City Light South Service Center,98134,47.571399,-122.330911,44161
City of Seattle - Seattle Water Ops,98134,47.57952,-122.321401,44162
City of Seattle - West Bridge,98106,47.565149,-122.353024,44163
Tacoma Nissan,98409,47.21978,-122.48576,44166
Thruway Nissan,12550,41.504105,-74.068916,44174
Thruway Nissan,12550,41.504105,-74.068916,44175
Country Club Imports,13820,42.451285,-75.100333,44176
Country Club Imports,13820,42.451285,-75.100333,44177
West-Herr Nissan,14127,42.784867,-78.76558,44178
West-Herr Nissan,14127,42.784867,-78.76558,44179
Nissan 112,11772,40.792986,-73.00827,44180
Nissan 112,11772,40.792986,-73.00827,44181
Huttig Nissan,12901,44.667361,-73.444894,44182
Huttig Nissan,12901,44.667361,-73.444894,44183
Nissan City - Port Chester,10573,40.996358,-73.669405,44184
Nissan City - Port Chester,10573,40.996358,-73.669405,44185
Riverhead Auto Mall,11901,40.924758,-72.704752,44186
Riverhead Auto Mall,11901,40.924758,-72.704752,44187
Dorschel Nissan,14623,43.077581,-77.641934,44188
Dorschel Nissan,14623,43.077581,-77.641934,44189
Smithtown Nissan,11780,40.859886,-73.162067,44190
Smithtown Nissan,11780,40.859886,-73.162067,44191
Lia Nissan,12304,42.764517,-73.88522,44192
Lia Nissan,12304,42.764517,-73.88522,44193
Legend Nissan,11791,40.809865,-73.507761,44198
Gregoris Motors,11580,40.670497,-73.717206,44201
Gregoris Motors,11580,40.670497,-73.717206,44202
Legend Nissan,11791,40.809865,-73.507761,44203
Serafini Nissan-Volvo,13850,42.095812,-76.003703,44204
Serafini Nissan-Volvo,13850,42.095812,-76.003703,44205
Poughkeepsie Nissan,12590,41.587383,-73.908392,44206
Poughkeepsie Nissan,12590,41.587383,-73.908392,44207
Vision Nissan,14580,43.204065,-77.478237,44208
Vision Nissan,14580,43.204065,-77.478237,44209
Nissan of Westbury,11590,40.753954,-73.561974,44212
Nissan of Westbury,11590,40.753954,-73.561974,44213
West Herr Nissan - Williamsville,14221,42.96275,-78.691132,44216
Nissan of Yorktown Heights,10598,41.289317,-73.835547,44218
Nissan of Yorktown Heights,10598,41.289317,-73.835547,44219
Carr Nissan,97005,45.491783,-122.81107,44225
Kiefer Nissan,97330,44.572608,-123.258425,44228
Lithia Nissan of Eugene,97401,44.05902085,-123.0813975,44230
Dick Hannah Nissan,97027,45.378967,-122.603899,44233
Chuck Colvin Nissan,97128,45.227394,-123.180863,44241
Lithia Nissan,97504,42.379969,-122.858192,44243
Rustom Nissan - Portland,97230,45.531759,-122.537403,44247
Power Nissan - Salem,97302,44.921582,-123.006236,44251
Tonkin Nissan,97070,45.326814,-122.770853,44255
Advantage Nissan,98312,47.562162,-122.684286,44270
Burien Nissan,98148,47.458466,-122.333257,44272
Lee Nissan - Auburn,4210,44.129326,-70.224225,44280
Ann Arbor Downtown Development Authority - Ann Ashley Parking Structure,48104,42.282617,-83.749329,44282
Ann Arbor Downtown Development Authority - Catherine and Fourth Surface Lot,48104,42.283504,-83.747496,44283
Ann Arbor Downtown Development Authority - Forrest Parking Structure,48104,42.274044,-83.733542,44284
Ann Arbor Downtown Development Authority - Maynard Parking Structure,48104,42.278668,-83.742596,44285
Ann Arbor Downtown Development Authority - William Street Parking Structure,48104,42.278461,-83.747741,44286
Ann Arbor Nissan,48103,42.284242,-83.80855,44287
Ann Arbor Nissan,48103,42.284242,-83.80855,44288
Gezon Motors,49525,43.035997,-85.618662,44289
Gezon Motors,49525,43.035997,-85.618662,44290
Cole Nissan,49008,42.271617,-85.628348,44292
Fox Nissan,49512,42.912537,-85.558232,44293
Fox Nissan,49512,42.912537,-85.558232,44294
Garber Nissan,48604,43.486749,-83.973864,44295
Garber Nissan,48604,43.486749,-83.973864,44296
Traverse City Auto Plaza,49686,44.743331,-85.594781,44297
Traverse City Auto Plaza,49686,44.743331,-85.594781,44298
Suburban Nissan - Troy,48084,42.553452,-83.175063,44299
Suburban Nissan - Troy,48084,42.553452,-83.175063,44300
Northern Wake Tech Community College,27616,35.867552,-78.543695,44301
Whole Foods Market,27615,35.898899,-78.650239,44302
Concord Nissan,3301,43.187837,-71.497717,44303
Concord Nissan,3301,43.187837,-71.497717,44304
Peter's Nissan - Nashua,3063,42.779284,-71.498971,44306
Port City Nissan,3801,43.077355,-70.785285,44307
Port City Nissan,3801,43.077355,-70.785285,44308
Patriot Nissan,3079,42.772666,-71.222512,44309
Patriot Nissan,3079,42.772666,-71.222512,44310
Somersworth Nissan,3878,43.257348,-70.900583,44311
Somersworth Nissan,3878,43.257348,-70.900583,44312
Nissan of Keene,3446,42.878599,-72.233177,44313
Nissan of Keene,3446,42.878599,-72.233177,44314
Autoserv Nissan - Tilton,3276,43.450949,-71.573167,44315
Autoserv Nissan - Tilton,3276,43.450949,-71.573167,44316
Destination Nissan,12206,42.676971,-73.787334,44317
Destination Nissan,12206,42.676971,-73.787334,44318
Mike Barney Nissan,14226,42.979725,-78.797346,44319
Lebrun Nissan,13021,42.966894,-76.535879,44321
Star Nissan,11361,40.758245,-73.776954,44323
Star Nissan,11361,40.758245,-73.776954,44324
Rockland Nissan,10913,41.071072,-73.950866,44325
Rockland Nissan,10913,41.071072,-73.950866,44326
Bay Ridge Nissan,11220,40.636324,-74.019228,44327
Bay Ridge Nissan,11220,40.636324,-74.019228,44328
Kings Nissan,11235,40.589167,-73.960707,44329
Kings Nissan,11235,40.589167,-73.960707,44330
Burdick Nissan,13039,43.147147,-76.114274,44331
Burdick Nissan,13039,43.147147,-76.114274,44332
Hoselton Nissan,14445,43.100001,-77.481422,44333
Hoselton Nissan,14445,43.100001,-77.481422,44334
Rockaway Nissan,11096,40.622268,-73.742699,44336
Rockaway Nissan,11096,40.622268,-73.742699,44337
Maguire Nissan,14850,42.435042,-76.5088,44338
Maguire Nissan,14850,42.435042,-76.5088,44339
Nemet Motors,11432,40.707242,-73.803844,44342
Nemet Motors,11432,40.707242,-73.803844,44343
Treiber Nissan,12095,43.025044,-74.358103,44344
Treiber Nissan,12095,43.025044,-74.358103,44345
Nissan - Garden City,11550,40.71693,-73.630152,44346
Nissan - Garden City,11550,40.71693,-73.630152,44347
Simmons Rockwell Nissan,14845,42.16246,-76.867435,44348
Simmons Rockwell Nissan,14845,42.16246,-76.867435,44349
Nissan - Huntington,11746,40.834455,-73.379693,44350
Nissan - Huntington,11746,40.834455,-73.379693,44351
Kingston Nissan,12401,41.948965,-74.032033,44352
West Herr Nissan,14094,43.128557,-78.696197,44354
West Herr Nissan,14094,43.128557,-78.696197,44355
Team Nissan,3103,42.953204,-71.44115,44356
Team Nissan,3103,42.953204,-71.44115,44357
Nissan Kia - Middletown,10958,41.40859,-74.413372,44358
Nissan Kia - Middletown,10958,41.40859,-74.413372,44359
Nissan of New Rochelle,10801,40.919104,-73.776645,44360
Nissan of New Rochelle,10801,40.919104,-73.776645,44361
Bommarito Nissan - Ballwin,63011,38.593551,-90.532572,44362
Bommarito Nissan - Ballwin,63011,38.593551,-90.532572,44363
Joe Machens Nissan,65203,38.967693,-92.334399,44364
Joe Machens Nissan,65203,38.967693,-92.334399,44365
Fenton Nissan - Tiffany Spring,64153,39.267153,-94.666038,44366
Fenton Nissan - Tiffany Spring,64153,39.267153,-94.666038,44367
Lee's Summit Nissan,64081,38.901254,-94.34927,44368
Lee's Summit Nissan,64081,38.901254,-94.34927,44369
Rolling Hills Nissan,64506,39.780953,-94.800709,44370
Rolling Hills Nissan,64506,39.780953,-94.800709,44371
Suntrup Nissan-Volkswagen,63123,38.5207,-90.343967,44372
Suntrup Nissan-Volkswagen,63123,38.5207,-90.343967,44373
Saint Charles Nissan,63376,38.797781,-90.598753,44374
Saint Charles Nissan,63376,38.797781,-90.598753,44375
Asheville Chamber of Commerce & Visitors Center,28801,35.597527,-82.560582,44376
College Street Parking Deck,28801,35.597377,-82.549206,44377
Ingles Markets - Skyland Plaza,28803,35.499836,-82.522586,44378
McLarty Daniel Nissan,72712,36.34538,-94.182742,44381
McLarty Daniel Nissan,72712,36.34538,-94.182742,44382
Superior Nissan - Conway,72032,35.09414,-92.4223,44383
Superior Nissan - Conway,72032,35.09414,-92.4223,44384
Superior Nissan,72703,36.112917,-94.144548,44385
Superior Nissan,72703,36.112917,-94.144548,44386
Orr Nissan - Fort Smith,72908,35.320472,-94.397408,44387
Orr Nissan - Fort Smith,72908,35.320472,-94.397408,44388
Orr Nissan - Hot Springs,71913,34.453266,-93.066286,44389
Orr Nissan - Hot Springs,71913,34.453266,-93.066286,44390
Central Nissan,72404,35.804632,-90.67099,44391
McLarty Nissan - Little Rock,72210,34.711439,-92.404311,44393
McLarty Nissan - Little Rock,72210,34.711439,-92.404311,44394
McLarty Nissan - North Little Rock,72117,34.810013,-92.205719,44395
McLarty Nissan - North Little Rock,72117,34.810013,-92.205719,44396
Welch Motor Co,71601,34.203951,-92.006625,44397
Welch Motor Co,71601,34.203951,-92.006625,44398
EVSP WALGREENS STORE 11241,92656,33.577103,-117.723844,44400
Bridgeport Hospital,6610,41.190701,-73.166282,44429
Lia Nissan - Enfield,6082,41.997574,-72.574713,44431
Lia Nissan - Enfield,6082,41.997574,-72.574713,44432
Paul Miller Nissan,6825,41.167407,-73.233711,44434
Harte Nissan,6120,41.791382,-72.656681,44435
Harte Nissan,6120,41.791382,-72.656681,44436
Manchester City Nissan,6040,41.814316,-72.507845,44437
Manchester City Nissan,6040,41.814316,-72.507845,44438
County Line Buick-Nissan,6762,41.568122,-73.098764,44439
County Line Buick-Nissan,6762,41.568122,-73.098764,44440
Middletown Nissan,6457,41.59054,-72.676141,44441
Middletown Nissan,6457,41.59054,-72.676141,44442
Napoli Nissan,6460,41.209761,-73.083686,44443
Napoli Nissan,6460,41.209761,-73.083686,44444
Executive Nissan,6473,41.360892,-72.870997,44447
Executive Nissan,6473,41.360892,-72.870997,44448
Gates Nissan,6256,41.728247,-72.188445,44449
Grossman Nissan,6475,41.309276,-72.383105,44450
D'Addario Nissan,6484,41.299792,-73.106051,44453
Barberino Nissan,6492,41.467376,-72.817586,44457
Barberino Nissan,6492,41.467376,-72.817586,44458
George Harte Nissan,6516,41.307602,-72.968506,44459
George Harte Nissan,6516,41.307602,-72.968506,44460
Hoffman Nissan,6092,41.820371,-72.869319,44461
Hoffman Nissan,6092,41.820371,-72.869319,44462
Bruce Bennett Nissan,6897,41.258992,-73.435546,44463
Bruce Bennett Nissan,6897,41.258992,-73.435546,44464
Weston Nissan,33331,26.073774,-80.361864,44465
Gates Nissan,6256,41.728247,-72.188445,44467
Lithia Nissan - Ames,50010,41.997327,-93.610192,44489
John Deery Motors,50613,42.513038,-92.440119,44491
John Deery Motors,50613,42.513038,-92.440119,44492
Dave Wright Nissan,52233,42.04721375,-91.68081742,44493
Dave Wright Nissan,52233,42.04721375,-91.68081742,44494
Lujack Nissan,52806,41.558296,-90.578545,44495
Kwik Star #790,52057,42.483018,-91.470641,44497
Billion Auto Nissan Sioux City,51106,42.439756,-96.359313,44498
Billion Auto Nissan Sioux City,51106,42.439756,-96.359313,44499
Kwik Trip #721,53559,43.169121,-89.069526,44501
Kwik Trip #742,54901,44.043494,-88.543579,44502
Alan Webb Nissan,98662,45.648094,-122.597954,44506
Valley Nissan,98901,46.590246,-120.500687,44509
Valley Nissan,98901,46.590246,-120.500687,44510
City of Rock Island Parking Ramp,61201,41.509406,-90.577025,44652
IMRA America,48105,42.289937,-83.67309,44773
City of Houghton,49931,47.12194,-88.56942,44812
NATIONAL GRID REVERE 99,2151,42.410782,-70.996891,44927
NATIONAL GRID ROCKLANDLIBRARY,2370,42.132105,-70.916995,44929
FAYETTEVILLE NC FRANKLIN 2,28301,35.052556,-78.880206,44944
OUC AVALON PARK 1,32828,28.510519,-81.154682,45001
CITY OF ORLANDO GEICO UNIT 01,32805,28.537663,-81.384224,45003
OUC COO CNL P4-02,32801,28.536837,-81.380623,45005
OUC STCL CIVIC CTR1,34769,28.241623,-81.307326,45007
WEST HALF 2 & 3 1400 JOYCE,22202,38.861644,-77.064159,45166
Snohomish County - Evergreen Fairgrounds,98272,47.868914,-121.987449,45209
E & M Electric,95448,38.6085938,-122.8688,45240
CITY OF DUBLIN STATION 3,94568,37.702909,-121.91835,45313
Gates Nissan,40475,37.761605,-84.273733,45631
Legacy Nissan,40741,37.105179,-84.079467,45632
Don Franklin Nissan - Lexington,40509,37.997336,-84.441827,45633
Bob Allen Nissan,40422,37.657747,-84.784008,45634
Bergeron Automotive,70002,30.004818,-90.16093,45651
Van Meter Inc,52246,41.645241,-91.545962,45652
Seattle City Light,98283,48.673466,-121.261467,45654
Lewis Nissan,25801,37.815464,-81.185243,45655
Lewis Nissan,25801,37.815464,-81.185243,45656
Premier Nissan,26501,39.646525,-80.002049,45657
Premier Nissan,26501,39.646525,-80.002049,45658
Nissan of Omaha,68118,41.264912,-96.187831,45660
Nissan of Omaha,68118,41.264912,-96.187831,45661
Elite Nissan of Bergenfield,7621,40.917338,-73.997447,45662
Lynnes Nissan City,7003,40.784797,-74.193494,45664
Route 23 Nissan,7405,40.991256,-74.347338,45666
Route 23 Nissan,7405,40.991256,-74.347338,45667
Cherry Hill Nissan,8002,39.939502,-75.011984,45668
Cherry Hill Nissan,8002,39.939502,-75.011984,45669
Hilltop Nissan,7936,40.807195,-74.371329,45670
Fred Beans Nissan - Flemington,8822,40.48774,-74.86328,45672
Fred Beans Nissan - Flemington,8822,40.48774,-74.86328,45673
DCH Freehold Nissan,7728,40.263381,-74.292408,45674
DCH Freehold Nissan,7728,40.263381,-74.292408,45675
Mt. Holly Nissan,8036,39.982438,-74.808764,45676
Route 33 Nissan,8690,40.229274,-74.672155,45678
Route 17 Nissan,7604,40.850992,-74.075092,45680
Route 17 Nissan,7604,40.850992,-74.075092,45681
Route 22 Nissan,7205,40.696469,-74.219681,45682
Pine Belt Nissan - Keyport,7735,40.42832,-74.192387,45684
Pine Belt Nissan - Keyport,7735,40.42832,-74.192387,45685
Causeway Nissan,8050,39.701442,-74.271282,45686
Acme Nissan,8852,40.40938,-74.506017,45688
Acme Nissan,8852,40.40938,-74.506017,45689
Sansone Jr's 66 Nissan,7753,40.228608,-74.068718,45690
Sansone Jr's 66 Nissan,7753,40.228608,-74.068718,45691
North Plainfield Nissan,7060,40.630184,-74.433373,45692
North Plainfield Nissan,7060,40.630184,-74.433373,45693
Nissan of Stanhope,7874,40.929732,-74.71888,45694
Nissan of Stanhope,7874,40.929732,-74.71888,45695
Pine Belt Automotive,8753,39.961373,-74.180868,45696
Pine Belt Automotive,8753,39.961373,-74.180868,45697
Nissan 46,7512,40.894133,-74.232511,45698
Nissan 46,7512,40.894133,-74.232511,45699
Ramsey Nissan,7458,41.053216,-74.120288,45700
Ramsey Nissan,7458,41.053216,-74.120288,45701
Team Nissan,8360,39.462013,-75.043179,45702
Team Nissan,8360,39.462013,-75.043179,45703
Woodbury Nissan,8096,39.83206,-75.1581,45704
Woodbury Nissan,8096,39.83206,-75.1581,45705
Fred Martin Nissan,44312,40.978905,-81.494254,45708
Fred Martin Nissan,44312,40.978905,-81.494254,45709
Jeff Schmitt Nissan,45434,39.708775,-84.026292,45710
Jeff Schmitt Nissan,45434,39.708775,-84.026292,45711
Bedford Nissan,44146,41.402746,-81.552724,45712
Bedford Nissan,44146,41.402746,-81.552724,45713
Boardman Nissan,44512,41.010633,-80.662082,45714
Boardman Nissan,44512,41.010633,-80.662082,45715
Thayer Nissan,43402,41.415799,-83.651786,45716
Thayer Nissan,43402,41.415799,-83.651786,45717
Busam Motor Sales,45246,39.285136,-84.447192,45718
Busam Motor Sales,45246,39.285136,-84.447192,45719
Jeff Wyler Nissan - Cincinnati,45251,39.228991,-84.588623,45720
Jeff Wyler Nissan - Cincinnati,45251,39.228991,-84.588623,45721
Kings Nissan,45249,39.295523,-84.311517,45722
Kings Nissan,45249,39.295523,-84.311517,45723
Germain Nissan,43230,40.057068,-82.885518,45724
Germain Nissan,43230,40.057068,-82.885518,45725
The Electrical Trades Center,43212,39.974166,-83.02872,45727
Ron Marhofer Nissan,44221,41.11975,-81.48296,45728
Ron Marhofer Nissan,44221,41.11975,-81.48296,45729
Matt Castrucci Nissan,45459,39.638788,-84.221675,45730
Matt Castrucci Nissan,45459,39.638788,-84.221675,45731
Parkway Nissan Lincoln Mercury,44622,40.523001,-81.489388,45732
Parkway Nissan Lincoln Mercury,44622,40.523001,-81.489388,45733
Jeff Wyler Nissan - Fairfield,45014,39.329217,-84.517152,45734
Jeff Wyler Nissan - Fairfield,45014,39.329217,-84.517152,45735
Warner Nissan,45840,41.058412,-83.614262,45736
Buckeye Nissan,43026,40.031602,-83.125728,45738
Buckeye Nissan,43026,40.031602,-83.125728,45739
Reineke Nissan,45805,40.757603,-84.146368,45740
Nissan of Mansfield,44906,40.759025,-82.567985,45742
Nissan of Mansfield,44906,40.759025,-82.567985,45743
Ganley Nissan,44124,41.519706,-81.461226,45746
Ganley Nissan,44124,41.519706,-81.461226,45747
Ken Ganley Nissan,44256,41.134139,-81.793566,45748
Ken Ganley Nissan,44256,41.134139,-81.793566,45749
Mentor Nissan,44060,41.68165,-81.339516,45750
Mentor Nissan,44060,41.68165,-81.339516,45751
Nissan of North Olmsted,44070,41.409652,-81.938059,45754
Nissan of North Olmsted,44070,41.409652,-81.938059,45755
I-90 Nissan,44054,41.423584,-82.088115,45756
Nissan of Streetsboro,44241,41.248333,-81.362879,45758
Nissan of Streetsboro,44241,41.248333,-81.362879,45759
Yark Nissan,43615,41.675335,-83.684803,45760
Yark Nissan,43615,41.675335,-83.684803,45761
Beau Townsend Nissan,45377,39.888695,-84.218465,45762
Beau Townsend Nissan,45377,39.888695,-84.218465,45763
Sims Buick-GMC-Nissan,44483,41.263756,-80.782876,45764
Interstate Mitsubishi,16509,42.054742,-80.105109,45769
City of Charleston - Gaillard Auditorium,29401,32.787311,-79.930037,45770
City of Charleston - Queen Street Garage,29401,32.777245,-79.933619,45771
City of Charleston - Visitor Center Garage,29403,32.790806,-79.938,45772
Coastal Carolina University,29526,33.799792,-79.01138,45773
Horry County Library,29526,33.841727,-79.051177,45774
Union County Advanced Technology Center,29353,34.761595,-81.646791,45776
Horry Georgetown Technical College - Speir Building,29577,33.661672,-78.937739,45777
City of Rock Hill - YMCA,29730,34.977,-80.9771,45779
City of Rock Hill - City Hall,29730,34.924189,-81.02889,45780
City of Spartanburg - Municipal Parking Garage,29306,34.948192,-81.927953,45782
City of Spartanburg - Municipal Parking Garage,29306,34.949604,-81.933288,45784
City of Spartanburg - Administration Building,29303,34.955945,-81.93733,45785
Spartanburg Marriott,29306,34.954092,-81.933172,45786
City of Spartanburg - Public Works Building,29302,34.94118,-81.909739,45787
University of South Carolina - Union,29379,34.716959,-81.621094,45790
City of Conway - Public Parking Lot,29526,33.836216,-79.048195,45791
City of Rock Hill - York County Airport,29732,34.987457,-81.060145,45796
Shirlie Slack Mitsubishi,22408,38.271867,-77.493368,45798
Waikele Center,96797,21.400736,-158.002668,45800
Mike Miller Mitsubishi,61615,40.784164,-89.623657,45803
Leglue Nissan,71303,31.296699,-92.516114,45806
Leglue Nissan,71303,31.296699,-92.516114,45807
Royal Nissan,70815,30.439653,-91.085484,45808
Royal Nissan,70815,30.439653,-91.085484,45809
Orr Nissan,71111,32.556206,-93.724758,45810
Jerry Rome Nissan,1089,42.119685,-72.626476,45812
Jerry Rome Nissan,1089,42.119685,-72.626476,45813
Westborough Mitsubishi,1581,42.286247,-71.594009,45816
DTE Energy - Mount Clemens Service Center,48036,42.613655,-82.88299,45819
DTE Energy - Headquarters Mail Room Loading Dock Garage,48226,42.33466,-83.057153,45821
Gray-Daniels Nissan - Brandon,39042,32.280561,-90.032108,45822
Gray-Daniels Nissan - Brandon,39042,32.280561,-90.032108,45823
Paul Barnett Nissan,39601,31.578085,-90.463742,45824
Paul Barnett Nissan,39601,31.578085,-90.463742,45825
Columbus Nissan,39702,33.520806,-88.362801,45826
Columbus Nissan,39702,33.520806,-88.362801,45827
James Ceranti Nissan,38703,33.400588,-91.008332,45828
James Ceranti Nissan,38703,33.400588,-91.008332,45829
Cannon Nissan,38930,33.525183,-90.207653,45830
Grenada Nissan,38901,33.785742,-89.852801,45832
Grenada Nissan,38901,33.785742,-89.852801,45833
Pat Peck Nissan,39503,30.425992,-89.091508,45834
Petro Nissan,39402,31.3178137,-89.3946827,45836
Petro Nissan,39402,31.3178137,-89.3946827,45837
Cannon Nissan - Jackson,39204,32.273401,-90.194078,45838
Cannon Nissan - Jackson,39204,32.273401,-90.194078,45839
Gray-Daniels Nissan - Jackson,39211,32.39278,-90.144432,45840
Gray-Daniels Nissan - Jackson,39211,32.39278,-90.144432,45841
Estabrook Motor Co,39567,30.374076,-88.539909,45844
Estabrook Motor Co,39567,30.374076,-88.539909,45845
Nissan of Picayune,39466,30.513154,-89.663644,45846
Landers Nissan,38671,34.9616327,-89.9855855,45848
Landers Nissan,38671,34.9616327,-89.9855855,45849
Blackburn Nissan,39180,32.325412,-90.866422,45850
Blackburn Nissan,39180,32.325412,-90.866422,45851
"CHARLOTTE, NC CMGC STATION 4",28202,35.221981,-80.839984,45854
"CHARLOTTE, NC MALLARD CK 02",28262,35.323848,-80.773027,45858
Eddie Tourelle's Northpark Nissan,70433,30.445288,-90.083166,45860
Bill Hood Nissan,70401,30.50375,-90.48208,45862
Giles Nissan,70503,30.165233,-92.083374,45864
Premier Nissan - Metairie,70003,30.003547,-90.165986,45866
Premier Nissan - Metairie,70003,30.003547,-90.165986,45867
Sparks Nissan,71203,32.500127,-92.07881,45868
Sparks Nissan,71203,32.500127,-92.07881,45869
Matt Bowers Nissan,70128,30.05165,-89.95182,45870
Nissan of Opelousas,70570,30.512581,-92.070331,45872
Bertera Nissan,1501,42.182748,-71.850396,45874
Bertera Nissan,1501,42.182748,-71.850396,45875
Battles Nissan,2532,41.738842,-70.586069,45878
Battles Nissan,2532,41.738842,-70.586069,45879
Nissan 24,2301,42.063356,-71.058186,45880
Nissan 24,2301,42.063356,-71.058186,45881
Curry Nissan Chicopee,1020,42.17889,-72.575914,45882
Country Nissan,1035,42.340378,-72.606213,45886
Country Nissan,1035,42.340378,-72.606213,45887
Balise Nissan - Cape Cod,2601,41.663549,-70.299233,45888
Balise Nissan - Cape Cod,2601,41.663549,-70.299233,45889
Sullivan Brothers Nissan,2364,41.976052,-70.7127,45891
Ron Bouchard's Nissan,1523,42.520224,-71.70099,45892
Ron Bouchard's Nissan,1523,42.520224,-71.70099,45893
Kelly Nissan - Lynnfield,1940,42.509982,-71.008978,45894
Kelly Nissan - Lynnfield,1940,42.509982,-71.008978,45895
Marlborough Nissan,1752,42.351115,-71.500717,45896
Marlborough Nissan,1752,42.351115,-71.500717,45897
Colonial Nissan - Medford,2155,42.412492,-71.106619,45898
Colonial Nissan - Medford,2155,42.412492,-71.106619,45899
Nissan Village of North Attleboro,2761,41.960366,-71.342187,45902
Nissan Village of North Attleboro,2761,41.960366,-71.342187,45903
Coastal Nissan,2061,42.165417,-70.887748,45904
Coastal Nissan,2061,42.165417,-70.887748,45905
Boch Nissan,2062,42.192051,-71.18462,45906
Boch Nissan,2062,42.192051,-71.18462,45907
Haddad Nissan,1201,42.445108,-73.256216,45908
Haddad Nissan,1201,42.445108,-73.256216,45909
Quirk Nissan,2169,42.253475,-70.991361,45910
Quirk Nissan,2169,42.253475,-70.991361,45911
Mastria Nissan,2767,41.904046,-71.017203,45912
Mastria Nissan,2767,41.904046,-71.017203,45913
Pearlridge Shopping Center - Uptown,96701,21.384853,-157.941842,45924
Ala Moana Hotel,96814,21.29029,-157.839362,45926
Bishop Museum,96817,21.33372,-157.87072,45929
Central Pacific Plaza,96813,21.307588,-157.860698,45930
Hawaii Prince Golf Club,96706,21.328272,-158.027542,45932
HMSA Center,96814,21.29691,-157.8417,45933
"Hawaii Prince Hotel, Waikiki",96815,21.28609,-157.84001,45934
Hilton Hawaiian Village,96815,21.2839,-157.83639,45935
Waikiki Beachcomber by Outrigger,96815,21.278247,-157.827342,45937
Kahala Mall,96816,21.277863,-157.786459,45938
Kaimuki Shopping Center,96816,21.286596,-157.807802,45939
Kaiser Mapunapuna Clinic Honolulu,96819,21.345833,-157.895,45940
Kapolei Commons,96707,21.32943,-158.09059,45941
Mark's Garage Honolulu HI,96813,21.3114,-157.86082,45943
Ohana Honolulu Airport Hotel,96815,21.336826,-157.917527,45945
Ohana Waikiki Malia,96815,21.280988,-157.828268,45946
Ohana Waikiki West,96815,21.278818,-157.825031,45947
Outrigger Reef,96815,21.27858,-157.832725,45948
Outrigger Waikiki,96815,21.269797,-157.822152,45949
Ross & Pagoda Hotel Garage,96814,21.294867,-157.8408,45950
Stadium Marketplace,96818,21.399297,-158.016044,45951
Topa Financial Center,96813,21.30761,-157.86377,45952
HawaiiUSA Federal Credit Union,96817,21.31554,-157.86213,45955
Waikiki Galleria Tower,96815,21.280349,-157.828812,45956
Waikiki Parc Hotel,96815,21.278092,-157.830594,45957
Kahana Gateway Retail,96761,20.97289,-156.67797,45959
Turtle Bay Resort Hawaii,96731,21.70444,-157.99679,45960
Jim Falk Motors - Maui,96732,20.8891,-156.458605,45962
Four Seasons Resort Hualalai,96740,21.863217,-159.788556,45964
Kona Commons,96740,19.65101,-156.00357,45965
King Windward Nissan,96744,21.399116,-157.799326,45968
Kihei Town Center,96753,20.73329,-156.452204,45970
Hapuna Beach Prince Hotel,96743,19.99483,-155.82305,45971
Mauna Kea Beach Hotel,96743,20.00707,-155.8247,45972
Marriott - Waiohai Beach Club,96756,21.874944,-159.456719,45973
Sheraton Maui Resort & Spa,96761,20.92587,-156.69357,45975
Kauai County Building,96766,21.974621,-159.367732,45979
Kauai Marriott Resort & Beach Club,96766,21.965581,-159.357212,45980
Kuhio Nissan,96766,21.968189,-159.357009,45981
Kuhio Nissan,96766,21.968189,-159.357009,45982
Moanalua Shopping Center,96818,21.34425,-157.92861,45984
Princeville Shopping Center,96722,22.212721,-159.476393,45985
Westin Princeville Resort,96722,22.222851,-159.46862,45986
"Four Seasons Resort, Wailea",96753,20.67927,-156.44165,45988
Maui Memorial Medical Center,96793,20.884721,-156.488527,45990
Kaiser Waipio Clinic Hawaii,96797,21.42579,-157.99713,45991
City of Auburn Hills - Administrative Campus,48326,42.670667,-83.220974,46094
Amador Transit,95685,38.379983,-120.807672,46136
ComEd,60077,42.048674,-87.756383,46235
ComEd,60445,41.647334,-87.729414,46236
ComEd,60153,41.874415,-87.8337901,46237
PMC Enterprises,31029,33.020179,-83.912616,46291
Solar by Harrimans,34285,27.083031,-82.42344,46311
WHOLE FOODS MKT BEE CAVE ST1,78738,30.307388,-97.938035,46369
Smith & Associates,77040,29.84499,-95.505905,46378
Courtyard By Marriott - Plano Parkway,75093,33.01736,-96.7937,46383
OAK HARBOR OH DUAL #1,98277,48.288066,-122.648224,46390
Richland County - Community Center,53581,43.3440922,-90.3889595,46396
City of Durham - Goldenbelt,27701,35.99017,-78.8902,46406
Michael Jordan Nissan,27707,35.97051751,-78.95684759,46407
Workhorse,45150,39.283991,-84.301826,46422
Waikem Auto Family,44646,40.794689,-81.462403,46423
Waikem Auto Family,44646,40.794689,-81.462403,46424
GOOGLE PIT-BAK-3-02,15206,40.457724,-79.916569,46452
Dick Smith Nissan,29223,34.111189,-80.896093,46456
Dick Smith Nissan,29223,34.111189,-80.896093,46457
Freedom Honda Sumter,29150,33.962204,-80.402858,46460
Freedom Honda Sumter,29150,33.962204,-80.402858,46461
Liberty Mitsubishi,57701,44.076491,-103.189869,46462
HCA Corporate Headquarters - Building 1,37203,36.15403028,-86.81379927,46470
Golden Gate Park - Music Concourse Garage,94118,37.768766,-122.468341,46473
CCSF SFMTA SUTTER 3,94108,37.789884,-122.406808,46477
Cupertino Electric,95112,37.36217973,-121.8995386,46482
Vaden Nissan,31419,31.986772,-81.13254,46483
Vaden Nissan,31419,31.986772,-81.13254,46484
Vaden Nissan of Statesboro,30458,32.423702,-81.791801,46486
Flowers Nissan,31792,30.857666,-83.950487,46488
Flowers Nissan,31792,30.857666,-83.950487,46489
Tenneson Nissan,31794,31.441223,-83.524911,46490
Tenneson Nissan,31794,31.441223,-83.524911,46491
Valdosta Nissan,31602,30.883336,-83.269586,46492
Valdosta Nissan,31602,30.883336,-83.269586,46493
Woody Folsom Nissan,30474,32.210564,-82.391607,46494
Best Western - Plaza Hotel,96819,21.336212,-157.913447,46498
C&C HONOLULU FASI CIVIC CTR,96813,21.304625,-157.853919,46501
Hilton - Waikiki Beach,96815,21.275234,-157.821849,46503
J.D. Power & Associates,91362,34.148413,-118.798832,46519
Tynan's Nissan,80012,39.702351,-104.865298,46520
Tynan's Nissan,80012,39.702351,-104.865298,46521
Boulder Nissan,80301,40.025019,-105.258915,46522
Larry H Miller Nissan - Arapahoe,80112,39.594525,-104.872435,46524
Larry H Miller Nissan - Arapahoe,80112,39.594525,-104.872435,46525
South Colorado Springs Nissan,80916,38.81233,-104.756795,46526
South Colorado Springs Nissan,80916,38.81233,-104.756795,46527
Woodmen Nissan,80918,38.931011,-104.811075,46528
Woodmen Nissan,80918,38.931011,-104.811075,46529
Nissan of Durango,81303,37.269708,-107.907728,46532
Nissan of Durango,81303,37.269708,-107.907728,46533
Greeley Nissan,80634,40.39443,-104.736034,46537
Empire Lakewood Nissan,80401,39.732606,-105.163711,46538
Empire Lakewood Nissan,80401,39.732606,-105.163711,46539
Saint Anthony Hospital,80228,39.7171136,-105.1288004,46540
Empire Littleton Nissan,80123,39.626641,-105.090506,46541
Empire Littleton Nissan,80123,39.626641,-105.090506,46542
Valley Nissan,80501,40.151989,-105.108644,46543
Valley Nissan,80501,40.151989,-105.108644,46544
Dave Solon Nissan,81008,38.312144,-104.640891,46545
Dave Solon Nissan,81008,38.312144,-104.640891,46546
Crowley Nissan,6010,41.699374,-72.894672,46547
Goodwin University,6118,41.749499,-72.639362,46548
Town of East Haven,6512,41.277368,-72.871663,46549
Connecticut Department of Energy and Environmental Protection,6106,41.763294,-72.678633,46550
Yale University,6511,41.323894,-72.928583,46551
Summer Street Garage,6901,41.054155,-73.541625,46553
Hertrich Nissan JP-Eagle,19901,39.136284,-75.527155,46555
Sheridan Nissan,19720,39.663533,-75.605014,46556
Sheridan Nissan,19720,39.663533,-75.605014,46557
Porter Nissan,19711,39.687222,-75.740488,46558
Porter Nissan,19711,39.687222,-75.740488,46559
Harbor Nissan,33980,26.966836,-82.076851,46560
Harbor Nissan,33980,26.966836,-82.076851,46561
Fuccillo Nissan,33764,27.911345,-82.728797,46562
Fuccillo Nissan,33764,27.911345,-82.728797,46563
Lokey Nissan,33761,28.024503,-82.738817,46564
Lokey Nissan,33761,28.024503,-82.738817,46565
Coral Springs Nissan,33071,26.23871,-80.251886,46566
Coral Springs Nissan,33071,26.23871,-80.251886,46567
Daytona Nissan,32124,29.215495,-81.10534,46568
Daytona Nissan,32124,29.215495,-81.10534,46569
Sutherlin Nissan,33912,26.539388,-81.870692,46571
Sutherlin Nissan,33912,26.539388,-81.870692,46572
Sutherlin Nissan,34982,27.377265,-80.326861,46573
Sutherlin Nissan,34982,27.377265,-80.326861,46574
Gainesville Nissan,32609,29.689296,-82.318596,46575
Gainesville Nissan,32609,29.689296,-82.318596,46576
Coggin Nissan,32225,30.324014,-81.524719,46577
Coggin Nissan,32225,30.324014,-81.524719,46578
Coggin Nissan at the Avenues,32256,30.172215,-81.544583,46579
Coggin Nissan at the Avenues,32256,30.172215,-81.544583,46580
Jenkins Nissan,33805,28.09809,-81.949333,46582
Jenkins Nissan,33805,28.09809,-81.949333,46583
Jenkins Nissan,34788,28.822813,-81.787457,46584
Jenkins Nissan,34788,28.822813,-81.787457,46585
Bill Ray Nissan,32750,28.724709,-81.316556,46586
Bill Ray Nissan,32750,28.724709,-81.316556,46587
Miller & Miller Nissan,32446,30.782356,-85.245729,46588
Nissan of Melbourne,32901,28.101637,-80.614492,46590
Nissan of Melbourne,32901,28.101637,-80.614492,46591
Naples Nissan,34109,26.211419,-81.744746,46594
Maus Nissan,34652,28.21583,-82.739071,46595
Maus Nissan,34652,28.21583,-82.739071,46596
Pearson Nissan of Ocala,34471,29.171608,-82.161506,46597
Pearson Nissan of Ocala,34471,29.171608,-82.161506,46598
Marriott Grand Vista,32822,28.3984649,-81.4537093,46600
Reed Motors,32808,28.551681,-81.424557,46601
Reed Motors,32808,28.551681,-81.424557,46602
Sutherlin Nissan - Orlando,32807,28.5684,-81.27715,46604
Sutherlin Nissan - Orlando,32807,28.5684,-81.27715,46605
Universal Nissan,32837,28.38053,-81.403658,46606
Universal Nissan,32837,28.38053,-81.403658,46607
Beck Nissan,32177,29.663189,-81.656096,46608
Beck Nissan,32177,29.663189,-81.656096,46609
John Lee Nissan,32405,30.188966,-85.656853,46611
Sandy Sansing Nissan,32505,30.47414,-87.249675,46613
Sandy Sansing Nissan,32505,30.47414,-87.249675,46614
Performance Nissan,33062,26.21375,-80.10699,46615
Performance Nissan,33062,26.21375,-80.10699,46616
Naples Nissan,34109,26.211419,-81.744746,46617
West Palm Beach Nissan,33404,26.782347,-80.09792,46619
West Palm Beach Nissan,33404,26.782347,-80.09792,46620
Southern 441 Nissan,33411,26.680654,-80.198008,46621
Southern 441 Nissan,33411,26.680654,-80.198008,46622
Nissan of Saint Augustine,32086,29.844721,-81.323289,46623
Nissan of Saint Augustine,32086,29.844721,-81.323289,46624
Crown Nissan,33714,27.818805,-82.678474,46625
Crown Nissan,33714,27.818805,-82.678474,46626
Gettel Nissan - Sarasota,34239,27.298292,-82.499125,46627
Gettel Nissan - Sarasota,34239,27.298292,-82.499125,46628
Kraft Nissan,32308,30.462438,-84.221215,46632
Kraft Nissan,32308,30.462438,-84.221215,46633
Pat Fischer Nissan,32780,28.602972,-80.808957,46634
Pat Fischer Nissan,32780,28.602972,-80.808957,46635
Nissan of Venice,34292,27.090886,-82.433092,46636
Wesley Chapel Nissan,33544,28.23835,-82.344239,46638
Wesley Chapel Nissan,33544,28.23835,-82.344239,46639
Five Star Nissan - Albany,31705,31.57122,-84.125568,46640
Five Star Nissan - Albany,31705,31.57122,-84.125568,46641
Hilton Garden Inn - Marietta,30339,33.9064807,-84.4639319,46642
Nissan of Augusta,30907,33.515068,-82.067573,46643
Nissan of Augusta,30907,33.515068,-82.067573,46644
Nissan of Athens,30606,33.940287,-83.49648,46645
Nissan of Athens,30606,33.940287,-83.49648,46646
Scott Evans Nissan,30117,33.587958,-85.053239,46647
Scott Evans Nissan,30117,33.587958,-85.053239,46648
Nissan Headquarters - Columbus,31904,32.539843,-84.965676,46649
Nissan Headquarters - Columbus,31904,32.539843,-84.965676,46650
Conyers Nissan,30094,33.66597615,-84.03435213,46651
Conyers Nissan,30094,33.66597615,-84.03435213,46652
Butler Nissan,31206,32.915302,-83.70634,46658
Butler Nissan,31206,32.915302,-83.70634,46659
Childre Nissan,31061,33.106139,-83.257757,46662
Childre Nissan,31061,33.106139,-83.257757,46663
Nissan of Albertville,35950,34.290864,-86.244855,46667
Nissan of Albertville,35950,34.290864,-86.244855,46668
Massey Automotive,36420,31.318556,-86.45545,46669
Massey Automotive,36420,31.318556,-86.45545,46670
Lynch Nissan - Auburn,36830,32.559745,-85.50088,46671
Lynch Nissan - Auburn,36830,32.559745,-85.50088,46672
Benton Nissan - Bessemer,35022,33.363169,-87.007652,46673
Benton Nissan - Bessemer,35022,33.363169,-87.007652,46674
Jim Burke Nissan,35203,33.512147,-86.816519,46675
Jim Burke Nissan,35203,33.512147,-86.816519,46676
Serra Nissan,35215,33.624698,-86.686454,46677
Serra Nissan,35215,33.624698,-86.686454,46678
McKinnon Nissan,35046,32.888783,-86.622664,46679
McKinnon Nissan,35046,32.888783,-86.622664,46680
Bondy's Nissan,36305,31.231097,-85.447945,46681
Bondy's Nissan,36305,31.231097,-85.447945,46682
Mitchell Nissan,36330,31.30476,-85.819992,46683
Mitchell Nissan,36330,31.30476,-85.819992,46684
University Nissan - Florence,35630,34.83473,-87.628871,46685
University Nissan - Florence,35630,34.83473,-87.628871,46686
Nissan of Gadsden,35901,33.981374,-86.007245,46688
Nissan of Gadsden,35901,33.981374,-86.007245,46689
Landers McLarty Nissan,35806,34.748967,-86.690944,46690
Landers McLarty Nissan,35806,34.748967,-86.690944,46691
Nissan of Mobile,36606,30.669173,-88.12657,46692
Nissan of Mobile,36606,30.669173,-88.12657,46693
Benton Nissan,36203,33.594279,-85.876568,46694
Benton Nissan,36203,33.594279,-85.876568,46695
Nissan of Burlingame,94010,37.57792,-122.341931,46709
Nissan of Burlingame,94010,37.57792,-122.341931,46710
San Francisco Airport - Marriott Waterfront,94010,37.6023496,-122.3706759,46711
CITYOF CAMPBELL 2NDST GARAGE UL,95008,37.287593,-121.946908,46715
Dublin Nissan,94568,37.702828,-121.911087,46721
Dublin Nissan,94568,37.702828,-121.911087,46722
Stone Brewing World Bistro & Gardens,92029,33.11587,-117.11955,46723
Momentum Nissan,94533,38.244614,-122.079181,46724
Momentum Nissan,94533,38.244614,-122.079181,46725
Renaissance Indian Wells Resort & Spa,92210,33.72323,-116.324409,46729
OMP Sanders Rubbercraft,90808,33.8234522,-118.1488717,46731
Los Angeles County - Museum of Art,90036,34.063383,-118.35808,46733
Empire Nissan,91761,34.049006,-117.547161,46743
Empire Nissan,91761,34.049006,-117.547161,46744
MT CLEMENS DDA MAIN ST PARK #1,48043,42.59811,-82.877464,46768
Kaiser Honolulu Clinic,96814,21.301035,-157.846302,46772
Kaiser Permanente - Moanalua Medical Center,96819,21.362292,-157.900139,46773
Queen's Physician Office Building,96813,21.308447,-157.853161,46775
Ace Hardware,96707,21.329863,-158.086621,46779
Grand Hyatt Kauai,96756,21.876457,-159.44208,46782
Lihue Civic Center - Piikoi Building - Public Access,96766,21.975084,-159.369044,46787
Kapolei Judiciary,96707,21.326903,-158.085721,46788
Paulson Electric,52404,41.947533,-91.6870579,46789
Tri-City Electric,52806,41.5829247,-90.5713513,46790
Dennis Dillon Nissan,83704,43.619031,-116.29091,46791
Dennis Dillon Nissan,83704,43.619031,-116.29091,46792
Ron Sayer Nissan,83401,43.506418,-112.000182,46793
Ron Sayer Nissan,83401,43.506418,-112.000182,46794
Arlington Nissan,60004,42.139843,-87.996655,46797
Arlington Nissan,60004,42.139843,-87.996655,46798
O'Brien Nissan,61704,40.459154,-88.966191,46799
O'Brien Nissan,61704,40.459154,-88.966191,46800
Hove Buick-Nissan,60915,41.154031,-87.851483,46802
Monken Nissan - Centralia,62801,38.533452,-89.172979,46803
Berman Nissan - Chicago,60641,41.953751,-87.739697,46806
Berman Nissan - Chicago,60641,41.953751,-87.739697,46807
Continental Nissan,60525,41.78586,-87.8685,46809
Continental Nissan,60525,41.78586,-87.8685,46810
Jim M'Lady Nissan,60014,42.226647,-88.306745,46811
Jim M'Lady Nissan,60014,42.226647,-88.306745,46812
Crown Nissan - Decatur,62526,39.876094,-88.959111,46813
Crown Nissan - Decatur,62526,39.876094,-88.959111,46814
Ken Nelson Auto Plaza,61021,41.856583,-89.489398,46815
Bill Kay's Nissan - Downers Grove,60515,41.807887,-88.024848,46817
Bill Kay's Nissan - Downers Grove,60515,41.807887,-88.024848,46818
McGrath Nissan,60120,42.033769,-88.255193,46819
McGrath Nissan,60120,42.033769,-88.255193,46820
The Autobarn Nissan,60202,42.03616,-87.680149,46821
The Autobarn Nissan,60202,42.03616,-87.680149,46822
Galesburg Nissan,61401,40.973058,-90.383695,46823
KANE COUNTY KANE COURTHOUSE,60134,41.886523,-88.309239,46825
Glendale Nissan,60139,41.904021,-88.068043,46826
Glendale Nissan,60139,41.904021,-88.068043,46827
Gerald Nissan - North Aurora,60542,41.798401,-88.37177,46832
Gerald Nissan - North Aurora,60542,41.798401,-88.37177,46833
Auffenberg Nissan,62269,38.596106,-89.956489,46834
Auffenberg Nissan,62269,38.596106,-89.956489,46835
Nissan of St Charles,60174,41.920486,-88.284011,46837
Nissan of St Charles,60174,41.920486,-88.284011,46838
Tom Wood Collision Center,46280,39.929262,-86.099395,46842
Purdue University - Armory,47907,40.4277617,-86.9162607,46844
Purdue University - Grant Street Parking Garage,47906,40.4244203,-86.9103211,46845
Purdue University - Northwestern Parking Garage,47907,40.4296753,-86.9120266,46846
JOHNSON COUNTY YOUTH&FAMILY,66061,38.88768,-94.830627,46847
Oakes Mitsubishi,66112,39.116404,-94.746998,46848
Oakes Mitsubishi,66112,39.116404,-94.746998,46849
Bob Allen Nissan,40422,37.657747,-84.784008,46850
Don Franklin Nissan - Lexington,40509,37.997336,-84.441827,46851
Legacy Nissan,40741,37.105179,-84.079467,46852
University of Louisville - Belknap Parking Garage,40208,38.2158706,-85.7548686,46853
Loyola University - New Orleans,70118,29.937545,-90.127308,46855
Electric Insurance Co,1915,42.579607,-70.90188,46857
State Street Financial Center Parking,2111,42.3529541,-71.0579565,46858
Inn at Santa Fe,87507,35.61229,-106.0323,46893
Cross Insurance,4605,44.434846,-68.369482,46951
Lee Toyota,4086,43.937921,-69.963454,46971
City of Rancho Cucamonga - Archibald Library,91730,34.120214,-117.593952,46972
City of Rancho Cucamonga - City Hall,91730,34.10303,-117.576,46973
City of Rancho Cucamonga - Animal Care & Adoption Center,91730,34.100456,-117.54918,46974
City of Rancho Cucamonga - Red Hill Community Park,91730,34.11787,-117.611,46976
City of Rancho Cucamonga - Heritage Community Park,91737,34.154033,-117.607446,46978
Illinois Institute of Technology,60616,41.83545303,-87.62598419,46990
One Atlantic Center,30309,33.787208,-84.387453,46991
Advocate BroMenn Medical Center,61761,40.49813,-88.991628,46994
Friendship Nissan,28043,35.334675,-81.892822,46996
Friendship Nissan,28043,35.334675,-81.892822,46997
Gastonia Nissan,28054,35.261109,-81.139708,46998
Gastonia Nissan,28054,35.261109,-81.139708,46999
Deacon Jones Nissan,27530,35.400146,-78.014743,47000
Crown Nissan,27407,36.060613,-79.876505,47003
Crown Nissan,27407,36.060613,-79.876505,47004
Greenville Nissan,27834,35.571982,-77.408327,47005
Greenville Nissan,27834,35.571982,-77.408327,47006
City of Hendersonville - Dogwood Parking Lot,28792,35.316931,-82.461565,47007
Hunter Nissan,28792,35.301937,-82.440374,47008
Hunter Nissan,28792,35.301937,-82.440374,47009
Modern Nissan - Hickory,28602,35.710136,-81.321182,47010
Modern Nissan - Hickory,28602,35.710136,-81.321182,47011
Vann Yorks High Point Nissan,27260,35.937981,-79.996012,47012
Don Williamson Nissan,28546,34.761337,-77.381386,47013
Don Williamson Nissan,28546,34.761337,-77.381386,47014
Montreat College,28757,35.64569,-82.296916,47017
Eastern Carolina Nissan,28560,35.048239,-77.014397,47018
Eastern Carolina Nissan,28560,35.048239,-77.014397,47019
Reidsville Nissan,27320,36.323241,-79.686657,47024
Reidsville Nissan,27320,36.323241,-79.686657,47025
Nissan of Roanoke Rapids,27870,36.42331,-77.635287,47026
Griffin Nissan,28379,34.918104,-79.744733,47028
Simmons Nissan,27030,36.480616,-80.616003,47029
Simmons Nissan,27030,36.480616,-80.616003,47030
Griffin Nissan,28379,34.918104,-79.744733,47031
Ben Mynatt Nissan,28147,35.644549,-80.488272,47032
Ben Mynatt Nissan,28147,35.644549,-80.488272,47033
Classic Nissan - Sanford,27332,35.44411,-79.1282,47034
Classic Nissan - Sanford,27332,35.44411,-79.1282,47035
Pinehurst Nissan,28387,35.161067,-79.421191,47036
Pinehurst Nissan,28387,35.161067,-79.421191,47037
Classic Nissan - Statesville,28677,35.770417,-80.858363,47038
Crossroads Nissan - Wake Forest,27587,35.948971,-78.539171,47040
Crossroads Nissan - Wake Forest,27587,35.948971,-78.539171,47041
Wilkes Nissan,28697,36.149969,-81.202184,47042
Wilkes Nissan,28697,36.149969,-81.202184,47043
Capital Nissan - Wilmington,28405,34.24769,-77.865815,47044
Capital Nissan - Wilmington,28405,34.24769,-77.865815,47045
Lee Nissan,27896,35.756003,-77.9753,47046
Lee Nissan,27896,35.756003,-77.9753,47047
Modern Nissan,27105,36.179741,-80.275364,47048
Modern Nissan,27105,36.179741,-80.275364,47049
Bob Moore Nissan - Norman,73072,35.266483,-97.487255,47053
Bob Moore Nissan - Norman,73072,35.266483,-97.487255,47054
Orr Nissan - West,73162,35.570933,-97.670511,47055
Orr Nissan - West,73162,35.570933,-97.670511,47056
Orr Nissan - Central,73149,35.39119,-97.509251,47057
Orr Nissan - Central,73149,35.39119,-97.509251,47058
Jackie Cooper Nissan,74133,36.021596,-95.887791,47059
Jackie Cooper Nissan,74133,36.021596,-95.887791,47060
West Hills Collision Center,97219,45.464636,-122.698892,47064
Grainger Nissan - Anderson,29621,34.550557,-82.674669,47066
Bob Richards Nissan,29842,33.48633,-81.931813,47068
Bob Richards Nissan,29842,33.48633,-81.931813,47069
Hudson Nissan,29407,32.788017,-80.017363,47070
Hudson Nissan,29407,32.788017,-80.017363,47071
Benson Nissan,29640,34.8261215,-82.5649691,47073
Benson Nissan,29640,34.8261215,-82.5649691,47074
Five Star Nissan - Florence,29501,34.187015,-79.812422,47075
Crown Nissan - Greenville,29607,34.81781,-82.341027,47077
Quality Nissan - Greenwood,29646,34.223185,-82.18908,47079
Quality Nissan - Greenwood,29646,34.223185,-82.18908,47080
Nissan of Greer,29651,34.94677,-82.210221,47081
Nissan of Greer,29651,34.94677,-82.210221,47082
Dick Smith Nissan,29072,33.997902,-81.222504,47085
Grand Strand Nissan,29579,33.753917,-78.965658,47086
Grand Strand Nissan,29579,33.753917,-78.965658,47087
Hudson Nissan,29406,32.934522,-80.039343,47088
Hudson Nissan,29406,32.934522,-80.039343,47089
Orangeburg Nissan,29118,33.538342,-80.834906,47090
Orangeburg Nissan,29118,33.538342,-80.834906,47091
Coastal Nissan,29585,33.426264,-79.157814,47092
Coastal Nissan,29585,33.426264,-79.157814,47093
Rock Hill Nissan,29730,34.945197,-80.969333,47094
Rock Hill Nissan,29730,34.945197,-80.969333,47095
Benson Nissan,29303,34.971931,-81.936956,47096
Benson Nissan,29303,34.971931,-81.936956,47097
Nissan of Sumter,29150,33.956113,-80.385874,47098
Nissan of Sumter,29150,33.956113,-80.385874,47099
Bergstrom Victory Lane Imports,54913,44.291643,-88.471308,47116
East Charlotte Nissan,28227,35.167774,-80.742259,47117
East Charlotte Nissan,28227,35.167774,-80.742259,47118
Scott Clark Nissan,28273,35.111292,-80.881867,47119
Scott Clark Nissan,28273,35.111292,-80.881867,47120
Haywood Community College,28721,35.525966,-82.927696,47121
Modern Nissan - Concord,28027,35.392063,-80.622777,47122
Modern Nissan - Lake Norman,28031,35.467117,-80.872205,47123
Modern Nissan - Lake Norman,28031,35.467117,-80.872205,47124
Durham County - Justice Center Parking Deck,27701,35.99289,-78.9014,47126
Nissan of Elizabeth City,27909,36.339936,-76.244936,47130
Nissan of Elizabeth City,27909,36.339936,-76.244936,47131
Fred Anderson Nissan,28304,35.042419,-78.956747,47132
Martin Nissan,60077,42.055712,-87.757895,47133
Martin Nissan,60077,42.055712,-87.757895,47134
Nissan of South Holland,60473,41.598505,-87.5824,47135
Nissan of South Holland,60473,41.598505,-87.5824,47136
Green Nissan,62711,39.757002,-89.740821,47137
Green Nissan,62711,39.757002,-89.740821,47138
Bob Rohrman Nissan,46304,41.604651,-87.110979,47141
Bob Rohrman Nissan,46304,41.604651,-87.110979,47142
Tom Naquin Nissan,46514,41.686313,-86.011996,47144
Tom Naquin Nissan,46514,41.686313,-86.011996,47145
D-Patrick Nissan,47715,37.977669,-87.499701,47146
D-Patrick Nissan,47715,37.977669,-87.499701,47147
Ed Martin Nissan - Fishers,46038,39.983623,-86.004756,47148
Ed Martin Nissan - Fishers,46038,39.983623,-86.004756,47149
Fort Wayne Nissan,46808,41.12267,-85.154261,47150
Fort Wayne Nissan,46808,41.12267,-85.154261,47151
Ed Martin Nissan,46219,39.779011,-86.046058,47152
Ed Martin Nissan,46219,39.779011,-86.046058,47153
Hubler Nissan,46227,39.644452,-86.131954,47154
Nissan of Lafayette,47905,40.418149,-86.837951,47155
Nissan of Lafayette,47905,40.418149,-86.837951,47156
Southlake Nissan,46410,41.469628,-87.284303,47157
Southlake Nissan,46410,41.469628,-87.284303,47158
Gurley Leep Nissan,46545,41.707652,-86.186717,47159
Gurley Leep Nissan,46545,41.707652,-86.186717,47160
Napleton Nissan - Schererville,46375,41.497662,-87.470113,47161
Napleton Nissan - Schererville,46375,41.497662,-87.470113,47162
Sorg Nissan,46582,41.274967,-85.852782,47163
Sorg Nissan,46582,41.274967,-85.852782,47164
Briggs Nissan - Lawrence,66047,38.929774,-95.261724,47165
Briggs Auto Group,66502,39.168346,-96.600023,47167
Briggs Auto Group,66502,39.168346,-96.600023,47168
Marshall Motor Co,67401,38.770827,-97.614166,47169
Marshall Motor Co,67401,38.770827,-97.614166,47170
Capital City Nissan - Topeka,66612,39.033021,-95.68261,47171
Capital City Nissan - Topeka,66612,39.033021,-95.68261,47172
Orr Nissan - Wichita,67207,37.679034,-97.217163,47173
Orr Nissan - Wichita,67207,37.679034,-97.217163,47174
Bill Cole Nissan,41101,38.472192,-82.626259,47175
Hubler Nissan,46227,39.644452,-86.131954,47177
Kerry Nissan,41042,39.003452,-84.654074,47178
Kerry Nissan,41042,39.003452,-84.654074,47179
Collins Nissan,40218,38.185647,-85.642223,47180
Collins Nissan,40218,38.185647,-85.642223,47181
Granite City Electric,2360,41.963875,-70.699124,47182
Indian Head Naval Base,20640,38.597411,-77.178757,47183
Asheboro Nissan,27203,35.70458,-79.781748,47184
Asheboro Nissan,27203,35.70458,-79.781748,47185
Anderson Nissan,28806,35.547866,-82.599474,47186
Anderson Nissan,28806,35.547866,-82.599474,47187
Black Mountain Public Safety Building,28711,35.619218,-82.320192,47189
AutoStar Nissan - Boone,28607,36.222859,-81.63402,47190
AutoStar Nissan - Boone,28607,36.222859,-81.63402,47191
Leith Nissan,27511,35.7390019,-78.8138134,47192
Leith Nissan,27511,35.7390019,-78.8138134,47193
Washington Navy Yard,20003,38.874415,-76.992381,47194
Woodfield Nissan,60169,42.050116,-88.097379,47195
Woodfield Nissan,60169,42.050116,-88.097379,47196
Thomas Nissan - Joilet,60435,41.548858,-88.12682,47197
Thomas Nissan - Joilet,60435,41.548858,-88.12682,47198
Liberty Nissan,60048,42.271355,-87.949478,47199
Liberty Nissan,60048,42.271355,-87.949478,47200
Anderson Nissan,61108,42.267854,-88.98865,47201
Nissan of Marian,62959,37.74626,-88.985731,47204
Hawkinson Nissan,60443,41.505031,-87.748285,47205
Hawkinson Nissan,60443,41.505031,-87.748285,47206
KC Summers Nissan,61938,39.459697,-88.376824,47207
KC Summers Nissan,61938,39.459697,-88.376824,47208
Al Piemonte Nissan,60160,41.907344,-87.854085,47209
Al Piemonte Nissan,60160,41.907344,-87.854085,47210
Courtesy Car City,61265,41.473755,-90.504579,47211
Courtesy Car City,61265,41.473755,-90.504579,47212
Gerald Nissan,60540,41.766972,-88.187306,47213
Gerald Nissan,60540,41.766972,-88.187306,47214
Star Nissan,60714,42.01155,-87.771151,47215
Star Nissan,60714,42.01155,-87.771151,47216
Kelly Nissan,60453,41.720728,-87.728594,47217
Kelly Nissan,60453,41.720728,-87.728594,47218
Orland Park Nissan,60462,41.602458,-87.827796,47219
Orland Park Nissan,60462,41.602458,-87.827796,47220
Uftring Nissan,61614,40.777601,-89.630469,47221
JP Motors,61354,41.352942,-89.124734,47223
JP Motors,61354,41.352942,-89.124734,47224
Autocenters Nissan,62095,38.857818,-90.067243,47225
Schneider Electric - Visitor Lot,52404,41.941296,-91.67738,47231
Aiken Electric Co-op,29801,33.547058,-81.6535,47233
1180 Peachtree Building,30309,33.787,-84.383549,47246
DEVOS PLACE BASEMENT PARK#2,49504,42.96999,-85.673622,47324
MT CLEMENS DDA EMERALD      #1,48043,42.598186,-82.879341,47326
Orange County - Robert and Pearl Seymour Center,27516,35.950629,-79.063354,47332
Orange County - Skills Development Center,27516,35.909907,-79.06344,47333
Orange County - Durham Technical Community College Park & Ride Lot,27278,36.04236,-79.09323,47334
Orange County - West Campus Office Building,27278,36.073889,-79.100586,47335
DTCC TERRY BUILDING 400,19901,39.197334,-75.560005,47361
OUC VCC UNIT 04,32811,28.518951,-81.465449,47367
Notre Dame - Facilities Building,46556,41.707936,-86.23619,47385
Notre Dame - Mail Distribution Center,46556,41.704758,-86.23823,47388
Notre Dame - West Lake Hall,46556,41.700144,-86.24535,47389
City of Columbus - City Hall,43215,39.963572,-83.0025,47399
Utah Paper Box,84101,40.749027,-111.911084,47407
Marshfield Utilities,54449,44.650858,-90.184847,47412
City of Columbus - Goodale Park,43215,39.973748,-83.006367,47452
Toyota of Santa Cruz,95010,36.981884,-121.962228,47457
Yosemite Village Store,95389,37.74656,-119.584,47464
Town of Nantucket - Town Hall Annex,2554,41.280829,-70.09553,47471
Nantucket Airport,2554,41.258249,-70.063098,47473
City of Dallas,75253,32.653718,-96.628439,47511
City of Dallas,75203,32.74458,-96.781018,47512
Nissan of Greenville,75402,33.104846,-96.102177,47527
Bert Ogden Nissan,78501,26.20814,-98.202844,47533
Tim Dahle Nissan,84107,40.672936,-111.889147,47541
Tim Dahle Nissan,84107,40.672936,-111.889147,47542
Tim Dahle Nissan,84054,40.858562,-111.902958,47543
Tim Dahle Nissan,84054,40.858562,-111.902958,47544
Hall Nissan,23321,36.864845,-76.41758,47547
Hall Nissan,23321,36.864845,-76.41758,47548
Nissan of Chesapeake,23320,36.753547,-76.248342,47549
Nissan of Chesapeake,23320,36.753547,-76.248342,47550
Loyalty Nissan,23831,37.304917,-77.392372,47551
Loyalty Nissan,23831,37.304917,-77.392372,47552
Robert Woodall Nissan,24540,36.595903,-79.397367,47553
Robert Woodall Nissan,24540,36.595903,-79.397367,47554
Lynchburg Nissan,24551,37.385661,-79.243911,47555
Lynchburg Nissan,24551,37.385661,-79.243911,47556
Pohanka Nissan of Fredericksburg,22408,38.255149,-77.496844,47557
Pohanka Nissan of Fredericksburg,22408,38.255149,-77.496844,47558
Harrisonburg Nissan,22801,38.422471,-78.838899,47559
Harrisonburg Nissan,22801,38.422471,-78.838899,47560
Hart Nissan,23111,37.613165,-77.335825,47561
Hart Nissan,23111,37.613165,-77.335825,47562
Priority Nissan - Newport News,23608,37.151806,-76.531052,47563
Priority Nissan - Newport News,23608,37.151806,-76.531052,47564
Nissan of Norfolk,23502,36.86564,-76.2106,47565
Nissan of Norfolk,23502,36.86564,-76.2106,47566
Nissan of Richmond,23233,37.650319,-77.609022,47567
Nissan of Richmond,23233,37.650319,-77.609022,47568
Gunter Nissan,24148,36.629501,-79.860071,47569
Gunter Nissan,24148,36.629501,-79.860071,47570
Leckner Nissan,22554,38.468791,-77.400162,47573
Leckner Nissan,22554,38.468791,-77.400162,47574
